var tainan_bank = {
"type": "FeatureCollection",
"name": "tainan_bank",
"crs": { "type": "name", "properties": { "name": "urn:ogc:def:crs:OGC:1.3:CRS84" } },
"features": [
{ "type": "Feature", "properties": { "id": null, "name": "南運商店 卓天德", "address": "大正1-3", "type": 13, "sort2": "興信 (偵探)" }, "geometry": { "type": "Point", "coordinates": [ 120.206446623794193, 22.99363211536587 ] } },
{ "type": "Feature", "properties": { "id": null, "name": "臺灣銀行臺南支店", "address": "大宮1-11", "type": 5, "sort2": "銀行" }, "geometry": { "type": "Point", "coordinates": [ 120.201731896545084, 22.994774226001521 ] } },
{ "type": "Feature", "properties": { "id": null, "name": "信用組合臺南友信會", "address": "大宮1-9", "type": 5, "sort2": "信用組合" }, "geometry": { "type": "Point", "coordinates": [ 120.202000523599651, 22.994885942443119 ] } },
{ "type": "Feature", "properties": { "id": null, "name": "富和商行 夜久藤太郎", "address": "大宮2-21", "type": 13, "sort2": "株式, 現物證券" }, "geometry": { "type": "Point", "coordinates": [ 120.201152460403264, 22.993037029064759 ] } },
{ "type": "Feature", "properties": { "id": null, "name": "榮豐商店", "address": "大宮2-64", "type": 13, "sort2": "株式, 現物證券" }, "geometry": { "type": "Point", "coordinates": [ 120.200925992848767, 22.992996471575115 ] } },
{ "type": "Feature", "properties": { "id": null, "name": "臺灣貯蓄銀行臺南支店", "address": "大宮3-45", "type": 5, "sort2": "銀行" }, "geometry": { "type": "Point", "coordinates": [ 120.200843590864395, 22.992891605203134 ] } },
{ "type": "Feature", "properties": { "id": null, "name": "和田彌市", "address": "大宮3-78", "type": 13, "sort2": "質舖" }, "geometry": { "type": "Point", "coordinates": [ 120.200449976528034, 22.993039397539736 ] } },
{ "type": "Feature", "properties": { "id": null, "name": "臺灣人事興信所 桐山繁雄", "address": "大宮4-17", "type": 13, "sort2": "興信 (偵探)" }, "geometry": { "type": "Point", "coordinates": [ 120.200347692031244, 22.990527136890002 ] } },
{ "type": "Feature", "properties": { "id": null, "name": "張常華", "address": "末廣1-110", "type": 13, "sort2": "土地建物貸付" }, "geometry": { "type": "Point", "coordinates": [ 120.203108150720084, 22.991594667955386 ] } },
{ "type": "Feature", "properties": { "id": null, "name": "日本勸業銀行臺南支店", "address": "末廣1-119", "type": 5, "sort2": "銀行" }, "geometry": { "type": "Point", "coordinates": [ 120.203012161437741, 22.992172605906561 ] } },
{ "type": "Feature", "properties": { "id": null, "name": "臺南庶民信用組主事補 遠藤宇吉, 櫻井齊", "address": "末廣1-15", "type": 5, "sort2": "信用組合, 住宅" }, "geometry": { "type": "Point", "coordinates": [ 120.20354740476435, 22.992011723735811 ] } },
{ "type": "Feature", "properties": { "id": null, "name": "アサヰ寫真場 淺井甚三郎, 保全信用組合", "address": "末廣2-22", "type": 5, "sort2": "寫真館, 信用組合" }, "geometry": { "type": "Point", "coordinates": [ 120.20245010390073, 22.991280960522062 ] } },
{ "type": "Feature", "properties": { "id": null, "name": "坂田質店 坂田金治郎", "address": "本2-138", "type": 13, "sort2": "質舖" }, "geometry": { "type": "Point", "coordinates": [ 120.204822759046024, 22.993964265102758 ] } },
{ "type": "Feature", "properties": { "id": null, "name": "日本生命保險株式會社臺南出張所", "address": "本2-206", "type": 5, "sort2": "保險" }, "geometry": { "type": "Point", "coordinates": [ 120.204215194611024, 22.99429624504215 ] } },
{ "type": "Feature", "properties": { "id": null, "name": "豐榮商店", "address": "本2-242", "type": 13, "sort2": "株式, 現物證券" }, "geometry": { "type": "Point", "coordinates": [ 120.203921850387772, 22.994224808892959 ] } },
{ "type": "Feature", "properties": { "id": null, "name": "月形株式店, 月形兩替店", "address": "本2-61", "type": 13, "sort2": "兩替 (換錢), 株式, 現物證券" }, "geometry": { "type": "Point", "coordinates": [ 120.204393226093572, 22.994792787698554 ] } },
{ "type": "Feature", "properties": { "id": null, "name": "大東信託株式會社臺南支店", "address": "本3-204", "type": 13, "sort2": "信託" }, "geometry": { "type": "Point", "coordinates": [ 120.202685569717218, 22.995045328904659 ] } },
{ "type": "Feature", "properties": { "id": null, "name": "永泰商行, 東明組 廖江水", "address": "本3-216", "type": 13, "sort2": "株式, 現物證券\/土木建築" }, "geometry": { "type": "Point", "coordinates": [ 120.202229035507898, 22.994850880529278 ] } },
{ "type": "Feature", "properties": { "id": null, "name": "長門商會 黃榮椿", "address": "本3-73", "type": 13, "sort2": "株式, 現物證券" }, "geometry": { "type": "Point", "coordinates": [ 120.202380998183571, 22.99543548585547 ] } },
{ "type": "Feature", "properties": { "id": null, "name": "大和證券和會社", "address": "本3-135", "type": 13, "sort2": null }, "geometry": { "type": "Point", "coordinates": [ 120.202265266347496, 22.995387111957736 ] } },
{ "type": "Feature", "properties": { "id": null, "name": "承發自轉車店", "address": "明治2-19", "type": 13, "sort2": "自轉車 (腳踏車)\n" }, "geometry": { "type": "Point", "coordinates": [ 120.205679644587647, 22.998450735382946 ] } },
{ "type": "Feature", "properties": { "id": null, "name": "太平生命保險株式會社臺南出張所", "address": "明治3-55", "type": 5, "sort2": "保險" }, "geometry": { "type": "Point", "coordinates": [ 120.202256795188561, 22.999497747775763 ] } },
{ "type": "Feature", "properties": { "id": null, "name": "郭啟", "address": "幸2-10", "type": 13, "sort2": "貸地" }, "geometry": { "type": "Point", "coordinates": [ 120.20537024125916, 22.989763983086842 ] } },
{ "type": "Feature", "properties": { "id": null, "name": "三和銀行臺南支店", "address": "本4-169", "type": 5, "sort2": "銀行" }, "geometry": { "type": "Point", "coordinates": [ 120.200477922350757, 22.996056949572665 ] } },
{ "type": "Feature", "properties": { "id": null, "name": "德泰商行 許燦然", "address": "本4-196", "type": 13, "sort2": "株式, 精米部屋" }, "geometry": { "type": "Point", "coordinates": [ 120.200001579679963, 22.995811000527407 ] } },
{ "type": "Feature", "properties": { "id": null, "name": "臺南信用組合", "address": "本4-82", "type": 5, "sort2": "信用組合" }, "geometry": { "type": "Point", "coordinates": [ 120.201802584055002, 22.995904389527695 ] } },
{ "type": "Feature", "properties": { "id": null, "name": "臺灣南部無盡株式會社", "address": "田42-11", "type": 13, "sort2": "土地建物管理" }, "geometry": { "type": "Point", "coordinates": [ 120.198030665647266, 22.99257182069573 ] } },
{ "type": "Feature", "properties": { "id": null, "name": "南榮商會 鄭福來", "address": "白金1-42, 43", "type": 13, "sort2": "住宅, 株式, 現物證券" }, "geometry": { "type": "Point", "coordinates": [ 120.202739738800759, 22.992660811301164 ] } },
{ "type": "Feature", "properties": { "id": null, "name": "幕內菊太郎 尾產洋行", "address": "白金1-57", "type": 13, "sort2": "代理業" }, "geometry": { "type": "Point", "coordinates": [ 120.20281355819219, 22.992980357655764 ] } },
{ "type": "Feature", "properties": { "id": null, "name": "臺灣商工銀行臺南支店", "address": "白金2-22", "type": 5, "sort2": "銀行" }, "geometry": { "type": "Point", "coordinates": [ 120.203426432107605, 22.994033942147908 ] } },
{ "type": "Feature", "properties": { "id": null, "name": "吳丕顯", "address": "白金3-130", "type": 13, "sort2": "賃地" }, "geometry": { "type": "Point", "coordinates": [ 120.203442116311606, 22.995469230586632 ] } },
{ "type": "Feature", "properties": { "id": null, "name": "洽合商會", "address": "白金3-139", "type": 13, "sort2": "株式" }, "geometry": { "type": "Point", "coordinates": [ 120.203538166373519, 22.995731941660086 ] } },
{ "type": "Feature", "properties": { "id": null, "name": "信用組合臺南興信社", "address": "白金3-163", "type": 5, "sort2": "信用組合" }, "geometry": { "type": "Point", "coordinates": [ 120.203737719322717, 22.996210319359744 ] } },
{ "type": "Feature", "properties": { "id": null, "name": "台南產業資源株式會社臺南支店", "address": "白金3-7", "type": 13, "sort2": "土地建物管理" }, "geometry": { "type": "Point", "coordinates": [ 120.204981070635569, 22.995832166878987 ] } },
{ "type": "Feature", "properties": { "id": null, "name": "王水", "address": "白金4-26", "type": 13, "sort2": "土地建物貸付" }, "geometry": { "type": "Point", "coordinates": [ 120.204291096178679, 22.996377045896999 ] } },
{ "type": "Feature", "properties": { "id": null, "name": "南豐商行", "address": "白金5-92", "type": 13, "sort2": "株式" }, "geometry": { "type": "Point", "coordinates": [ 120.20412586277854, 22.997875630963616 ] } },
{ "type": "Feature", "properties": { "id": null, "name": "泰源商行 陳水性", "address": "西門2-118-1", "type": 13, "sort2": "米, 株式" }, "geometry": { "type": "Point", "coordinates": [ 120.199396481990888, 22.997748872919082 ] } },
{ "type": "Feature", "properties": { "id": null, "name": "三利商行 吳魁", "address": "西門2-149", "type": 13, "sort2": "米, 株式" }, "geometry": { "type": "Point", "coordinates": [ 120.200628375264557, 22.997215287078902 ] } },
{ "type": "Feature", "properties": { "id": null, "name": "臺南大成商行 王朝禮, 蕭壠信用購買販賣利用組合", "address": "西門2-54", "type": 5, "sort2": "貿易, 信用組合" }, "geometry": { "type": "Point", "coordinates": [ 120.200588304363876, 22.998200440428953 ] } },
{ "type": "Feature", "properties": { "id": null, "name": "カネ丸證券商事社 澤崎壽朗, 杜建成商店", "address": "西門3-65", "type": 13, "sort2": "株式, 現物證券\/冰塊" }, "geometry": { "type": "Point", "coordinates": [ 120.199361521896549, 22.99584465653253 ] } },
{ "type": "Feature", "properties": { "id": null, "name": "凱南商會 謝國文", "address": "西門3-71", "type": 13, "sort2": "株式, 現物證券" }, "geometry": { "type": "Point", "coordinates": [ 120.199560387429315, 22.995304934390759 ] } },
{ "type": "Feature", "properties": { "id": null, "name": "川崎吉太郎", "address": "西門4-100", "type": 13, "sort2": "質舖" }, "geometry": { "type": "Point", "coordinates": [ 120.199529211455186, 22.993179571728959 ] } },
{ "type": "Feature", "properties": { "id": null, "name": "東昌商行 施鎮山", "address": "西門4-126", "type": 13, "sort2": "株式, 現物證券" }, "geometry": { "type": "Point", "coordinates": [ 120.199153423415325, 22.994076125754063 ] } },
{ "type": "Feature", "properties": { "id": null, "name": "玉成株式店", "address": "花園1-32", "type": 13, "sort2": "株式, 現物證券" }, "geometry": { "type": "Point", "coordinates": [ 120.205176735708648, 22.993945470975795 ] } },
{ "type": "Feature", "properties": { "id": null, "name": "富山商會, 利運商會 林添董", "address": "花園2-125", "type": 13, "sort2": "株式, 現物證券\/自轉車 (腳踏車)" }, "geometry": { "type": "Point", "coordinates": [ 120.205431591439165, 22.996097375368244 ] } },
{ "type": "Feature", "properties": { "id": null, "name": "英南商會", "address": "南門1-63", "type": 13, "sort2": "代理業" }, "geometry": { "type": "Point", "coordinates": [ 120.202827497226963, 22.989285878700134 ] } },
{ "type": "Feature", "properties": { "id": null, "name": "家永允子", "address": "南門3-4", "type": 13, "sort2": "賃地" }, "geometry": { "type": "Point", "coordinates": [ 120.19985808834889, 22.990399723914916 ] } },
{ "type": "Feature", "properties": { "id": null, "name": "南國公司臺南出張所 鄭左麒", "address": "南門3-85", "type": 13, "sort2": "仲介" }, "geometry": { "type": "Point", "coordinates": [ 120.198562093411155, 22.99070522180871 ] } },
{ "type": "Feature", "properties": { "id": null, "name": "三多商會 劉青雲", "address": "壽2-11", "type": 13, "sort2": "土地建物貸付" }, "geometry": { "type": "Point", "coordinates": [ 120.21106323426929, 22.991963842612304 ] } },
{ "type": "Feature", "properties": { "id": null, "name": "劉錫五", "address": "壽2-15", "type": 13, "sort2": "土地建物貸付" }, "geometry": { "type": "Point", "coordinates": [ 120.211450176278433, 22.99183411698602 ] } },
{ "type": "Feature", "properties": { "id": null, "name": "和源商行 劉瑞山", "address": "壽2-7", "type": 13, "sort2": "土地建物貸付" }, "geometry": { "type": "Point", "coordinates": [ 120.211121163394523, 22.992232761678807 ] } },
{ "type": "Feature", "properties": { "id": null, "name": "曾復全, 同進商店", "address": "綠10", "type": 13, "sort2": "米, 代理" }, "geometry": { "type": "Point", "coordinates": [ 120.207018789971869, 22.989178450612219 ] } },
{ "type": "Feature", "properties": { "id": null, "name": "富源商行 侯蓮溪", "address": "臺1-110", "type": 13, "sort2": "株式, 米" }, "geometry": { "type": "Point", "coordinates": [ 120.203329882230719, 22.996383941530212 ] } },
{ "type": "Feature", "properties": { "id": null, "name": "山二商事店, 啓源商行 林英慶", "address": "臺1-138", "type": 13, "sort2": "株式\/株式, 米" }, "geometry": { "type": "Point", "coordinates": [ 120.202464713232288, 22.996663784084319 ] } },
{ "type": "Feature", "properties": { "id": null, "name": "帝國生命保險株式會社出張所 栗原光次郎", "address": "錦1-76", "type": 5, "sort2": "保險" }, "geometry": { "type": "Point", "coordinates": [ 120.203648887248889, 22.99319837056068 ] } },
{ "type": "Feature", "properties": { "id": null, "name": "彰化銀行臺南支店, 商業興信所臺南出張所", "address": "錦2-36", "type": 5, "sort2": "銀行\/興信 (偵探)" }, "geometry": { "type": "Point", "coordinates": [ 120.201654146110869, 22.993911637846825 ] } },
{ "type": "Feature", "properties": { "id": null, "name": "楊文定", "address": "錦2-61", "type": 13, "sort2": "賃地" }, "geometry": { "type": "Point", "coordinates": [ 120.20187133202873, 22.993471675124255 ] } },
{ "type": "Feature", "properties": { "id": null, "name": "東洋證券社", "address": "錦3-127", "type": 13, "sort2": "株式, 現物證券" }, "geometry": { "type": "Point", "coordinates": [ 120.20080957495928, 22.994108307107592 ] } },
{ "type": "Feature", "properties": { "id": null, "name": "榮泰商行 王文模", "address": "錦3-135", "type": 13, "sort2": "株式, 現物證券" }, "geometry": { "type": "Point", "coordinates": [ 120.201151761327623, 22.993989730850615 ] } },
{ "type": "Feature", "properties": { "id": null, "name": "東成商會 蕭錫齡", "address": "錦3-158", "type": 13, "sort2": "株式, 現物證券" }, "geometry": { "type": "Point", "coordinates": [ 120.200631210691526, 22.993735410181234 ] } },
{ "type": "Feature", "properties": { "id": null, "name": "瑞豐商店", "address": "錦3-172", "type": 13, "sort2": "株式, 現物證券" }, "geometry": { "type": "Point", "coordinates": [ 120.200588127037349, 22.993912090529637 ] } },
{ "type": "Feature", "properties": { "id": null, "name": "竹中德次郎", "address": "錦3-245", "type": 13, "sort2": "質舖" }, "geometry": { "type": "Point", "coordinates": [ 120.199673181090617, 22.993682865910021 ] } },
{ "type": "Feature", "properties": { "id": null, "name": "永丘周旋所", "address": "濱1-52", "type": 13, "sort2": "周旋" }, "geometry": { "type": "Point", "coordinates": [ 120.196024473123387, 22.991331801092912 ] } },
{ "type": "Feature", "properties": { "id": null, "name": "臺南庶民信用組合安平出張所", "address": "安平292", "type": 5, "sort2": "信用組合" }, "geometry": { "type": "Point", "coordinates": [ 120.163495151325691, 23.001035873627785 ] } },
{ "type": "Feature", "properties": { "id": null, "name": "葉禾田", "address": "竹園2-12", "type": 13, "sort2": "土地建物貸付" }, "geometry": { "type": "Point", "coordinates": [ 120.218644243441759, 22.987868715009235 ] } },
{ "type": "Feature", "properties": { "id": null, "name": "福や證券商事株式會社臺南支店 高贊生", "address": "本3-153-1", "type": 13, "sort2": "株式, 現物證券" }, "geometry": { "type": "Point", "coordinates": [ 120.20249115684301, 22.995110774156068 ] } },
{ "type": "Feature", "properties": { "id": null, "name": "臺南友信會", "address": "永樂3-138", "type": 5, "sort2": "信用組合" }, "geometry": { "type": "Point", "coordinates": [ 120.196179715397619, 22.997043671922448 ] } },
{ "type": "Feature", "properties": { "id": null, "name": "英源商行", "address": "永樂3-178", "type": 13, "sort2": "株式" }, "geometry": { "type": "Point", "coordinates": [ 120.197646256320198, 22.996598697477086 ] } },
{ "type": "Feature", "properties": { "id": null, "name": "許清江", "address": "港1-103", "type": 13, "sort2": "土地建物貸付" }, "geometry": { "type": "Point", "coordinates": [ 120.197959553568495, 22.995205689022249 ] } },
{ "type": "Feature", "properties": { "id": null, "name": "省盧 謝國文", "address": "港1-119", "type": 13, "sort2": "土地建物貸付" }, "geometry": { "type": "Point", "coordinates": [ 120.19841194049539, 22.994981788981832 ] } },
{ "type": "Feature", "properties": { "id": null, "name": "大源株式社 黃永順", "address": "港1-65", "type": 13, "sort2": "株式, 現物證券" }, "geometry": { "type": "Point", "coordinates": [ 120.197553070883927, 22.995712508864621 ] } },
{ "type": "Feature", "properties": { "id": null, "name": "葉廷珪", "address": "開山3-99", "type": 13, "sort2": "土地建物貸付" }, "geometry": { "type": "Point", "coordinates": [ 120.20915581965761, 22.9873843063748 ] } },
{ "type": "Feature", "properties": { "id": null, "name": "許燦然", "address": "三分子138-1", "type": 13, "sort2": "土地建物貸付" }, "geometry": { "type": "Point", "coordinates": [ 120.218025951746583, 23.006762881067324 ] } }
]
}
