var tainan_admin = {
"type": "FeatureCollection",
"name": "tainan_admin",
"crs": { "type": "name", "properties": { "name": "urn:ogc:def:crs:OGC:1.3:CRS84" } },
"features": [
{ "type": "Feature", "properties": { "id": null, "name": "步兵第二聯隊本部", "address": "旭2", "type": 1, "sort2": "陸軍" }, "geometry": { "type": "Point", "coordinates": [ 120.215059840076194, 22.999942818256017 ] } },
{ "type": "Feature", "properties": { "id": null, "name": "內務局曾文溪治水工事事務所", "address": "大正3-14", "type": 1, "sort2": "官公署" }, "geometry": { "type": "Point", "coordinates": [ 120.207161218075569, 22.997631778909359 ] } },
{ "type": "Feature", "properties": { "id": null, "name": "商品陳列館, 諏訪免作藏, 丸尾九郎", "address": "大正3-3", "type": 1, "sort2": "陳列館, 土木建築, 土木建築" }, "geometry": { "type": "Point", "coordinates": [ 120.21087624848245, 22.995985752738999 ] } },
{ "type": "Feature", "properties": { "id": null, "name": "市役所土木係, 市營水道事務所", "address": "大宮2-27", "type": 1, "sort2": "市役所" }, "geometry": { "type": "Point", "coordinates": [ 120.201152493989895, 22.992669480915353 ] } },
{ "type": "Feature", "properties": { "id": null, "name": "公設質舖", "address": "大宮3-45", "type": 2, "sort2": "質舖" }, "geometry": { "type": "Point", "coordinates": [ 120.200819708925579, 22.992789990160503 ] } },
{ "type": "Feature", "properties": { "id": null, "name": "臺南大宮町郵便局", "address": "大宮4-38", "type": 1, "sort2": "郵便局" }, "geometry": { "type": "Point", "coordinates": [ 120.200437681039077, 22.990970028633932 ] } },
{ "type": "Feature", "properties": { "id": null, "name": "專賣局臺南支局", "address": "北門2-12", "type": 1, "sort2": "專賣局" }, "geometry": { "type": "Point", "coordinates": [ 120.212815865384542, 22.998957965099564 ] } },
{ "type": "Feature", "properties": { "id": null, "name": "北門町警察官吏派出所, 日本糖業聯合會臺灣支部", "address": "北門2-55", "type": 1, "sort2": "警察, 砂糖" }, "geometry": { "type": "Point", "coordinates": [ 120.211995248906248, 22.997851977451102 ] } },
{ "type": "Feature", "properties": { "id": null, "name": "臺南公園事務所", "address": "台南公園內", "type": 2, "sort2": "公園" }, "geometry": { "type": "Point", "coordinates": [ 120.211572237030765, 23.003168438076312 ] } },
{ "type": "Feature", "properties": { "id": null, "name": "武德殿", "address": "台南神社外苑內", "type": 2, "sort2": "武德會" }, "geometry": { "type": "Point", "coordinates": [ 120.203367993069435, 22.990481504486642 ] } },
{ "type": "Feature", "properties": { "id": null, "name": "遞信部臺南區技術官駐在所", "address": "台南郵便局內", "type": 1, "sort2": null }, "geometry": { "type": "Point", "coordinates": [ 120.202839430421704, 22.993494122893761 ] } },
{ "type": "Feature", "properties": { "id": null, "name": "臺南消防組 第一部詰所", "address": "末廣1-3, 4", "type": 1, "sort2": "消防" }, "geometry": { "type": "Point", "coordinates": [ 120.203811240538286, 22.992395379156921 ] } },
{ "type": "Feature", "properties": { "id": null, "name": "市役所", "address": "末廣2-114", "type": 1, "sort2": "市役所" }, "geometry": { "type": "Point", "coordinates": [ 120.201493622588032, 22.992668490858538 ] } },
{ "type": "Feature", "properties": { "id": null, "name": "臺南放送局ラジオ相談部", "address": "末廣2-133", "type": 2, "sort2": "放送局" }, "geometry": { "type": "Point", "coordinates": [ 120.201566037610093, 22.99193770063189 ] } },
{ "type": "Feature", "properties": { "id": null, "name": "市職業介紹所, 三唱メガネ店 三宅ノブコ", "address": "末廣2-144", "type": 2, "sort2": "市, 時計今銀細工" }, "geometry": { "type": "Point", "coordinates": [ 120.201268222528199, 22.991903681770872 ] } },
{ "type": "Feature", "properties": { "id": null, "name": "公會堂", "address": "本1-50", "type": 2, "sort2": "公會堂" }, "geometry": { "type": "Point", "coordinates": [ 120.2059401415639, 22.994361067635232 ] } },
{ "type": "Feature", "properties": { "id": null, "name": "臺南州國民道場", "address": "竹篙厝", "type": 2, "sort2": "公設" }, "geometry": { "type": "Point", "coordinates": [ 120.206072535098656, 22.973774706709676 ] } },
{ "type": "Feature", "properties": { "id": null, "name": "第二中學校", "address": "竹園1-2", "type": 2, "sort2": "中學校" }, "geometry": { "type": "Point", "coordinates": [ 120.216138847386716, 22.994186522500723 ] } },
{ "type": "Feature", "properties": { "id": null, "name": "第一中學校", "address": "三分子251", "type": 1, "sort2": "官公署" }, "geometry": { "type": "Point", "coordinates": [ 120.21322921556181, 23.004690124680081 ] } },
{ "type": "Feature", "properties": { "id": null, "name": "臺南陸軍醫院", "address": "三分子", "type": 2, "sort2": "公設" }, "geometry": { "type": "Point", "coordinates": [ 120.215690151731394, 23.002251085193954 ] } },
{ "type": "Feature", "properties": { "id": null, "name": "臺南刑務所", "address": "泉105", "type": 1, "sort2": "官公署" }, "geometry": { "type": "Point", "coordinates": [ 120.198951451193082, 22.987033921509049 ] } },
{ "type": "Feature", "properties": { "id": null, "name": "臺南神社", "address": "南門2-5", "type": 2, "sort2": "神社" }, "geometry": { "type": "Point", "coordinates": [ 120.201261119091143, 22.990484022720963 ] } },
{ "type": "Feature", "properties": { "id": null, "name": "臺南地方法院, 地方法院檢查局", "address": "南門2-50", "type": 1, "sort2": "法院" }, "geometry": { "type": "Point", "coordinates": [ 120.200927113985131, 22.989425668753789 ] } },
{ "type": "Feature", "properties": { "id": null, "name": "南門尋常高等小學校", "address": "南門1-100", "type": 2, "sort2": "小學校" }, "geometry": { "type": "Point", "coordinates": [ 120.202973221080768, 22.988619847241758 ] } },
{ "type": "Feature", "properties": { "id": null, "name": "臺南野球場", "address": "桶盤淺", "type": 2, "sort2": "公設" }, "geometry": { "type": "Point", "coordinates": [ 120.206237346664764, 22.980503585688947 ] } },
{ "type": "Feature", "properties": { "id": null, "name": "西市場", "address": "西門町4", "type": 2, "sort2": "公設" }, "geometry": { "type": "Point", "coordinates": [ 120.198159547267466, 22.993503773923429 ] } },
{ "type": "Feature", "properties": { "id": null, "name": "臺南驛前郵便局", "address": "大正3-22", "type": 1, "sort2": "郵便局" }, "geometry": { "type": "Point", "coordinates": [ 120.211184977489012, 22.99686951118672 ] } },
{ "type": "Feature", "properties": { "id": null, "name": "殖產局殖物檢查所臺南分所", "address": "大正3-23", "type": 1, "sort2": "總督府" }, "geometry": { "type": "Point", "coordinates": [ 120.211748940354312, 22.996595027850926 ] } },
{ "type": "Feature", "properties": { "id": null, "name": "明治公學校", "address": "明治3-103", "type": 2, "sort2": "公學校" }, "geometry": { "type": "Point", "coordinates": [ 120.203307029958282, 22.99864673536911 ] } },
{ "type": "Feature", "properties": { "id": null, "name": "長老教神學校", "address": "東門2-21", "type": 2, "sort2": "私立學校" }, "geometry": { "type": "Point", "coordinates": [ 120.214020324136911, 22.98920502991102 ] } },
{ "type": "Feature", "properties": { "id": null, "name": "水產試驗場台南支場", "address": "上鯤鯓", "type": 1, "sort2": "官公署" }, "geometry": { "type": "Point", "coordinates": [ 120.173062507400658, 22.987526359360874 ] } },
{ "type": "Feature", "properties": { "id": null, "name": "警察署", "address": "幸1-8", "type": 1, "sort2": "警察" }, "geometry": { "type": "Point", "coordinates": [ 120.205218190604484, 22.991157876873494 ] } },
{ "type": "Feature", "properties": { "id": null, "name": "博物館", "address": "幸1-6", "type": 2, "sort2": "博物館" }, "geometry": { "type": "Point", "coordinates": [ 120.205248869449292, 22.991678424906713 ] } },
{ "type": "Feature", "properties": { "id": null, "name": "本町警察官吏派出所", "address": "本4-304", "type": 1, "sort2": "警察" }, "geometry": { "type": "Point", "coordinates": [ 120.201593515547501, 22.995420410715468 ] } },
{ "type": "Feature", "properties": { "id": null, "name": "臺南魚市場", "address": "田50", "type": 2, "sort2": "市場" }, "geometry": { "type": "Point", "coordinates": [ 120.192601268849089, 22.993634986924945 ] } },
{ "type": "Feature", "properties": { "id": null, "name": "臺南簡易保險健康相談所", "address": "白金1-20", "type": 2, "sort2": "社會設施" }, "geometry": { "type": "Point", "coordinates": [ 120.203125934739006, 22.992494840569421 ] } },
{ "type": "Feature", "properties": { "id": null, "name": "錦町警察官吏派出所", "address": "白金1-51", "type": 1, "sort2": "警察" }, "geometry": { "type": "Point", "coordinates": [ 120.202766661400489, 22.992798330756003 ] } },
{ "type": "Feature", "properties": { "id": null, "name": "明治町警察官吏派出所", "address": "白金5-75", "type": 1, "sort2": "警察" }, "geometry": { "type": "Point", "coordinates": [ 120.204685046983826, 22.998310193927775 ] } },
{ "type": "Feature", "properties": { "id": null, "name": "專賣局臺南支局 安平分室", "address": "安平1001", "type": 1, "sort2": "專賣局" }, "geometry": { "type": "Point", "coordinates": [ 120.156304885853302, 23.002609128353608 ] } },
{ "type": "Feature", "properties": { "id": null, "name": "安平公學校", "address": "安平376", "type": 2, "sort2": "公學校" }, "geometry": { "type": "Point", "coordinates": [ 120.165630332886266, 23.000059749951284 ] } },
{ "type": "Feature", "properties": { "id": null, "name": "稅關安平船溜派出所", "address": "安平68", "type": 1, "sort2": "稅關" }, "geometry": { "type": "Point", "coordinates": [ 120.163991877390927, 22.998517220891575 ] } },
{ "type": "Feature", "properties": { "id": null, "name": "安平小學校", "address": "安平749-1", "type": 2, "sort2": "小學校" }, "geometry": { "type": "Point", "coordinates": [ 120.16086923074846, 23.000704376932148 ] } },
{ "type": "Feature", "properties": { "id": null, "name": "安平水產專修學校", "address": "安平999", "type": 2, "sort2": "實業學校" }, "geometry": { "type": "Point", "coordinates": [ 120.158409700643986, 23.003428652750749 ] } },
{ "type": "Feature", "properties": { "id": null, "name": "臺南西門町郵便局", "address": "西門3-70", "type": 1, "sort2": "郵便局" }, "geometry": { "type": "Point", "coordinates": [ 120.199605139430091, 22.995295964472959 ] } },
{ "type": "Feature", "properties": { "id": null, "name": "臺南檢番", "address": "西門4-110", "type": 2, "sort2": "檢番" }, "geometry": { "type": "Point", "coordinates": [ 120.199571864946776, 22.993526478036255 ] } },
{ "type": "Feature", "properties": { "id": null, "name": "臺南消防組第二部詰所, 臺南冷藏製冰株式會社, 西南冰塊販賣部 蔡麒麟", "address": "西門4-144", "type": 1, "sort2": "消防\/冰" }, "geometry": { "type": "Point", "coordinates": [ 120.197801614224858, 22.994062848973478 ] } },
{ "type": "Feature", "properties": { "id": null, "name": "臺南州廳, 嘉南大圳組合, 州自動車協會, 慈惠院", "address": "幸1-69", "type": 1, "sort2": null }, "geometry": { "type": "Point", "coordinates": [ 120.204341554417141, 22.99143882370976 ] } },
{ "type": "Feature", "properties": { "id": null, "name": "測候所", "address": "花園2-24", "type": 1, "sort2": "總督府" }, "geometry": { "type": "Point", "coordinates": [ 120.206750349665938, 22.995341272955859 ] } },
{ "type": "Feature", "properties": { "id": null, "name": "圖書館", "address": "花園2-30", "type": 2, "sort2": "圖書館" }, "geometry": { "type": "Point", "coordinates": [ 120.205859931240298, 22.995454866157054 ] } },
{ "type": "Feature", "properties": { "id": null, "name": "臺灣軍經理部臺南派出所", "address": "花園3-1", "type": 1, "sort2": "陸軍" }, "geometry": { "type": "Point", "coordinates": [ 120.208483110154347, 23.001393270552558 ] } },
{ "type": "Feature", "properties": { "id": null, "name": "花園尋常高等小學校", "address": "花園3-90", "type": 2, "sort2": "小學校" }, "geometry": { "type": "Point", "coordinates": [ 120.208942029692764, 23.000154996375045 ] } },
{ "type": "Feature", "properties": { "id": null, "name": "南門市場事務所", "address": "南門1-89", "type": 2, "sort2": "市場" }, "geometry": { "type": "Point", "coordinates": [ 120.203951749633362, 22.988869718205827 ] } },
{ "type": "Feature", "properties": { "id": null, "name": "商業專修學校, 勉強堂", "address": "南門1-9", "type": 2, "sort2": "學校\/文具" }, "geometry": { "type": "Point", "coordinates": [ 120.202743755981118, 22.990127756532566 ] } },
{ "type": "Feature", "properties": { "id": null, "name": "地方法院 監督書記官舍", "address": "南門2-50", "type": 1, "sort2": "法院" }, "geometry": { "type": "Point", "coordinates": [ 120.20088980549869, 22.988668601339242 ] } },
{ "type": "Feature", "properties": { "id": null, "name": "大宮町警察官吏派出所", "address": "南門3-7", "type": 1, "sort2": "警察" }, "geometry": { "type": "Point", "coordinates": [ 120.200200906635004, 22.990161584479171 ] } },
{ "type": "Feature", "properties": { "id": null, "name": "高等工業學校", "address": "後甲", "type": 2, "sort2": "高等學校" }, "geometry": { "type": "Point", "coordinates": [ 120.219624090583764, 22.996746010812611 ] } },
{ "type": "Feature", "properties": { "id": null, "name": "長老教女學校", "address": "後甲308", "type": 2, "sort2": "私立學校" }, "geometry": { "type": "Point", "coordinates": [ 120.219321543039527, 22.991587857143063 ] } },
{ "type": "Feature", "properties": { "id": null, "name": "長老教中學校", "address": "後甲423", "type": 2, "sort2": "私立學校" }, "geometry": { "type": "Point", "coordinates": [ 120.22220158350963, 22.989177419594096 ] } },
{ "type": "Feature", "properties": { "id": null, "name": "盲啞學校", "address": "壽1-35", "type": 2, "sort2": "學校" }, "geometry": { "type": "Point", "coordinates": [ 120.211204373622977, 22.993831265518143 ] } },
{ "type": "Feature", "properties": { "id": null, "name": "米穀檢查所臺南派出所, 湯川組 湯川鹿造, 大津山周造", "address": "壽1-6", "type": 1, "sort2": "總督府\/土木建築\/住宅" }, "geometry": { "type": "Point", "coordinates": [ 120.211284799560858, 22.993029858563805 ] } },
{ "type": "Feature", "properties": { "id": null, "name": "壽町警察官吏派出所", "address": "壽2-3", "type": 1, "sort2": "警察" }, "geometry": { "type": "Point", "coordinates": [ 120.211449346993589, 22.992536343635578 ] } },
{ "type": "Feature", "properties": { "id": null, "name": "福住町警察官吏派出所", "address": "福住1-301", "type": 1, "sort2": "警察" }, "geometry": { "type": "Point", "coordinates": [ 120.199687901609636, 22.999534243978747 ] } },
{ "type": "Feature", "properties": { "id": null, "name": "第一高等女學校, 寄宿舍", "address": "綠66", "type": 2, "sort2": "學校" }, "geometry": { "type": "Point", "coordinates": [ 120.206320318578818, 22.98671909594545 ] } },
{ "type": "Feature", "properties": { "id": null, "name": "商業學院學寮", "address": "臺2-13", "type": 2, "sort2": "學校" }, "geometry": { "type": "Point", "coordinates": [ 120.201957182070373, 22.998707111150672 ] } },
{ "type": "Feature", "properties": { "id": null, "name": "東本願寺", "address": "花園2-153", "type": 2, "sort2": "寺" }, "geometry": { "type": "Point", "coordinates": [ 120.206298692019743, 22.997306272590404 ] } },
{ "type": "Feature", "properties": { "id": null, "name": "臺南市花園遊園地", "address": null, "type": 2, "sort2": "公設" }, "geometry": { "type": "Point", "coordinates": [ 120.206403870061479, 22.997274794228833 ] } },
{ "type": "Feature", "properties": { "id": null, "name": "灣裡海水浴場", "address": "灣裡", "type": 2, "sort2": "公設" }, "geometry": { "type": "Point", "coordinates": [ 120.176881691369445, 22.933624341940764 ] } },
{ "type": "Feature", "properties": { "id": null, "name": "安平警察官吏派出所", "address": "安平", "type": 1, "sort2": "派出所" }, "geometry": { "type": "Point", "coordinates": [ 120.159256290476648, 23.001864777588207 ] } },
{ "type": "Feature", "properties": { "id": null, "name": "臺南公園", "address": null, "type": 2, "sort2": "記念物" }, "geometry": { "type": "Point", "coordinates": [ 120.21149888090288, 23.002197567215543 ] } },
{ "type": "Feature", "properties": { "id": null, "name": "安平郵便局", "address": "安平郵便局", "type": 1, "sort2": "郵便局" }, "geometry": { "type": "Point", "coordinates": [ 120.160645666081948, 23.002275157957314 ] } },
{ "type": "Feature", "properties": { "id": null, "name": "市營水道事務所安平分室", "address": "安平42", "type": 1, "sort2": "市役所" }, "geometry": { "type": "Point", "coordinates": [ 120.16497035182995, 22.998847871234037 ] } },
{ "type": "Feature", "properties": { "id": null, "name": "州安平休憩所", "address": "安平977", "type": 2, "sort2": "州" }, "geometry": { "type": "Point", "coordinates": [ 120.159675604990937, 23.001085992165649 ] } },
{ "type": "Feature", "properties": { "id": null, "name": "家政女學院", "address": "竹園2-27-1, 27-2", "type": 2, "sort2": "私立學校" }, "geometry": { "type": "Point", "coordinates": [ 120.217002171475585, 22.989020304037684 ] } },
{ "type": "Feature", "properties": { "id": null, "name": "第一中學校 學寮", "address": "鄭子寮36-2", "type": 2, "sort2": "學校" }, "geometry": { "type": "Point", "coordinates": [ 120.211822407209141, 23.004990850373222 ] } },
{ "type": "Feature", "properties": { "id": null, "name": "市葬儀堂", "address": "鹽埕1-25", "type": 2, "sort2": "喪葬設施" }, "geometry": { "type": "Point", "coordinates": [ 120.199887729318576, 22.984786328117114 ] } },
{ "type": "Feature", "properties": { "id": null, "name": "鹽埕公學校", "address": "鹽埕284", "type": 2, "sort2": "學校" }, "geometry": { "type": "Point", "coordinates": [ 120.189794634067326, 22.972035002182285 ] } },
{ "type": "Feature", "properties": { "id": null, "name": "專賣局臺南支局 鹽埕分室", "address": "鹽埕544", "type": 1, "sort2": "專賣局" }, "geometry": { "type": "Point", "coordinates": [ 120.188051380929778, 22.967704171780511 ] } },
{ "type": "Feature", "properties": { "id": null, "name": "火葬場", "address": "桶盤淺33", "type": 2, "sort2": "火葬場" }, "geometry": { "type": "Point", "coordinates": [ 120.199575124622129, 22.982192886935735 ] } },
{ "type": "Feature", "properties": { "id": null, "name": "市營家畜市場", "address": "鹽埕55", "type": 2, "sort2": "市場" }, "geometry": { "type": "Point", "coordinates": [ 120.195532236337115, 22.983456628367922 ] } },
{ "type": "Feature", "properties": { "id": null, "name": "商業學院", "address": "鹽埕1-1", "type": 2, "sort2": "學校" }, "geometry": { "type": "Point", "coordinates": [ 120.198915411726105, 22.985994923491738 ] } },
{ "type": "Feature", "properties": { "id": null, "name": "淨土宗知恩寺 石橋慧空", "address": "鹽埕1-1", "type": 2, "sort2": "寺" }, "geometry": { "type": "Point", "coordinates": [ 120.199618296663886, 22.985653477414147 ] } },
{ "type": "Feature", "properties": { "id": null, "name": "真言宗高野寺 大塚覺雲", "address": "鹽埕1-9", "type": 2, "sort2": "寺" }, "geometry": { "type": "Point", "coordinates": [ 120.201448388663152, 22.987229951782062 ] } },
{ "type": "Feature", "properties": { "id": null, "name": "末廣公學校", "address": "鹽埕1-13", "type": 2, "sort2": "學校" }, "geometry": { "type": "Point", "coordinates": [ 120.200801877556117, 22.983681249651376 ] } },
{ "type": "Feature", "properties": { "id": null, "name": "專賣局臺南支局 造酒場", "address": "鹽埕26", "type": 1, "sort2": "專賣局" }, "geometry": { "type": "Point", "coordinates": [ 120.196178884286653, 22.984971441492284 ] } },
{ "type": "Feature", "properties": { "id": null, "name": "仁德庄役場", "address": "仁德庄仁德414", "type": 1, "sort2": "庄役場" }, "geometry": { "type": "Point", "coordinates": [ 120.251763160889325, 22.972305204090723 ] } },
{ "type": "Feature", "properties": { "id": null, "name": "殖產局度量衡所臺南分室", "address": "北門2-61", "type": 1, "sort2": "總督府" }, "geometry": { "type": "Point", "coordinates": [ 120.211266884006818, 22.998342835595146 ] } },
{ "type": "Feature", "properties": { "id": null, "name": "稅關安平支署", "address": "北門3-3", "type": 1, "sort2": "稅關" }, "geometry": { "type": "Point", "coordinates": [ 120.21315499098975, 23.000575672739249 ] } },
{ "type": "Feature", "properties": { "id": null, "name": "永寧庄役場", "address": "永寧庄灣裡1877", "type": 1, "sort2": "庄役場" }, "geometry": { "type": "Point", "coordinates": [ 120.183009470226224, 22.927333020203825 ] } },
{ "type": "Feature", "properties": { "id": null, "name": "永康庄役場", "address": "永康340-1", "type": 1, "sort2": "庄役場" }, "geometry": { "type": "Point", "coordinates": [ 120.257087618947253, 23.026087971942442 ] } },
{ "type": "Feature", "properties": { "id": null, "name": "永樂市場", "address": "永樂3-33", "type": 2, "sort2": "市場" }, "geometry": { "type": "Point", "coordinates": [ 120.197755812522672, 22.996975053227558 ] } },
{ "type": "Feature", "properties": { "id": null, "name": "永樂町警察官吏派出所, 榮裕成商行 郭臣魁", "address": "永樂3-194", "type": 1, "sort2": "警察\/肥料雜穀" }, "geometry": { "type": "Point", "coordinates": [ 120.198189386492572, 22.996443622569078 ] } },
{ "type": "Feature", "properties": { "id": null, "name": "臺南禪寺 清水統傳", "address": "泉105-1", "type": 2, "sort2": "寺" }, "geometry": { "type": "Point", "coordinates": [ 120.198806239517637, 22.987982492017775 ] } },
{ "type": "Feature", "properties": { "id": null, "name": "歷史館", "address": "清水1-28,29,30", "type": 2, "sort2": "博物館" }, "geometry": { "type": "Point", "coordinates": [ 120.205681284602974, 22.992159936491699 ] } },
{ "type": "Feature", "properties": { "id": null, "name": "東市場事務所, ウヰロー屋菓子店", "address": "清水2-182", "type": 2, "sort2": "市場, 菓子" }, "geometry": { "type": "Point", "coordinates": [ 120.209666041191653, 22.991393116163945 ] } },
{ "type": "Feature", "properties": { "id": null, "name": "憲兵分隊", "address": "清水3-8", "type": 1, "sort2": "陸軍" }, "geometry": { "type": "Point", "coordinates": [ 120.209024314908561, 22.993243564667601 ] } },
{ "type": "Feature", "properties": { "id": null, "name": "臺南清水町郵便局", "address": "清水3-8-1", "type": 1, "sort2": "郵便局" }, "geometry": { "type": "Point", "coordinates": [ 120.20944418703445, 22.991980126950224 ] } },
{ "type": "Feature", "properties": { "id": null, "name": "港公學校", "address": "港2-114", "type": 1, "sort2": "學校" }, "geometry": { "type": "Point", "coordinates": [ 120.193890707666952, 22.997173847043122 ] } },
{ "type": "Feature", "properties": { "id": null, "name": "稅關安平支署 臺南運河派出所", "address": "港230", "type": 1, "sort2": "稅關" }, "geometry": { "type": "Point", "coordinates": [ 120.192635942469721, 22.99670621421825 ] } },
{ "type": "Feature", "properties": { "id": null, "name": "開山町警察官吏派出所", "address": "開山2-133", "type": 1, "sort2": "警察" }, "geometry": { "type": "Point", "coordinates": [ 120.208033506388645, 22.988706141140202 ] } },
{ "type": "Feature", "properties": { "id": null, "name": "師範學校附屬公學校", "address": "開山3-170", "type": 1, "sort2": "學校" }, "geometry": { "type": "Point", "coordinates": [ 120.208885001555316, 22.985893018344445 ] } },
{ "type": "Feature", "properties": { "id": null, "name": "開山神社社務所", "address": "開山3-75", "type": 2, "sort2": "神社" }, "geometry": { "type": "Point", "coordinates": [ 120.207774579705486, 22.987470044401441 ] } },
{ "type": "Feature", "properties": { "id": null, "name": "州農會臺南農業倉庫", "address": "歸仁庄八甲946, 947", "type": 1, "sort2": "州" }, "geometry": { "type": "Point", "coordinates": [ 120.295995673491674, 22.973257336622275 ] } },
{ "type": "Feature", "properties": { "id": null, "name": "歸仁庄役場", "address": "歸仁北204", "type": 1, "sort2": "庄役場" }, "geometry": { "type": "Point", "coordinates": [ 120.294792405004856, 22.967089314299706 ] } },
{ "type": "Feature", "properties": { "id": null, "name": "關廟庄役場", "address": "關廟705", "type": 1, "sort2": "庄役場" }, "geometry": { "type": "Point", "coordinates": [ 120.328695621901005, 22.962636009179381 ] } },
{ "type": "Feature", "properties": { "id": null, "name": "安平海水浴場", "address": "安平", "type": 2, "sort2": "公設" }, "geometry": { "type": "Point", "coordinates": [ 120.154412334194916, 22.985135937612142 ] } },
{ "type": "Feature", "properties": { "id": null, "name": "高等工業學校退廳後學寮", "address": "三分子86-1", "type": 1, "sort2": "宿舍" }, "geometry": { "type": "Point", "coordinates": [ 120.219734261496896, 22.998147389814584 ] } },
{ "type": "Feature", "properties": { "id": null, "name": "曾文溪製水工事機械修理工場", "address": "鄭子寮47-23", "type": 1, "sort2": null }, "geometry": { "type": "Point", "coordinates": [ 120.209095872696736, 23.004258731726477 ] } },
{ "type": "Feature", "properties": { "id": null, "name": "第二高等女學校", "address": "桶盤淺52-1", "type": 1, "sort2": "學校" }, "geometry": { "type": "Point", "coordinates": [ 120.20279863739168, 22.983874693604349 ] } },
{ "type": "Feature", "properties": { "id": null, "name": "糖業試驗所", "address": "竹篙厝470", "type": 1, "sort2": "總督府" }, "geometry": { "type": "Point", "coordinates": [ 120.221006707895228, 22.963565726584118 ] } },
{ "type": "Feature", "properties": { "id": null, "name": "農事試驗場", "address": "東門4-206", "type": 1, "sort2": "官公署" }, "geometry": { "type": "Point", "coordinates": [ 120.221222994089317, 22.9836320871654 ] } },
{ "type": "Feature", "properties": { "id": null, "name": "州立農事試驗場", "address": "東門4-206", "type": 1, "sort2": "官署" }, "geometry": { "type": "Point", "coordinates": [ 120.221240742344079, 22.983628253836727 ] } },
{ "type": "Feature", "properties": { "id": null, "name": "西部棉作指導所", "address": "竹篙厝64", "type": 1, "sort2": "官署" }, "geometry": { "type": "Point", "coordinates": [ 120.219490603877588, 22.983303641069263 ] } },
{ "type": "Feature", "properties": { "id": null, "name": "臺南市營住宅", "address": "竹篙厝653", "type": 2, "sort2": "市營住宅" }, "geometry": { "type": "Point", "coordinates": [ 120.212775079127624, 22.985164491117409 ] } },
{ "type": "Feature", "properties": { "id": null, "name": "新豐郡役所", "address": "東門1-57", "type": 1, "sort2": "官署" }, "geometry": { "type": "Point", "coordinates": [ 120.210818711352005, 22.988603596106085 ] } },
{ "type": "Feature", "properties": { "id": null, "name": "臺南無線電信局", "address": "鹽埕1-84-1", "type": 1, "sort2": "郵便局" }, "geometry": { "type": "Point", "coordinates": [ 120.194887985082474, 22.976923291769559 ] } }
]
}
