var tainan_business = {
"type": "FeatureCollection",
"name": "tainan_business",
"crs": { "type": "name", "properties": { "name": "urn:ogc:def:crs:OGC:1.3:CRS84" } },
"features": [
{ "type": "Feature", "properties": { "id": null, "name": "西島ラヂオ商會 佐藤富士雄", "address": "大正1-18", "type": 6, "sort2": "ラヂオ" }, "geometry": { "type": "Point", "coordinates": [ 120.205581304636112, 22.993081402680961 ] } },
{ "type": "Feature", "properties": { "id": null, "name": "ダイヤ寫真館, 臺灣興信所臺南支所 ?谷能充", "address": "大正1-20", "type": 6, "sort2": "寫真館" }, "geometry": { "type": "Point", "coordinates": [ 120.205418718550717, 22.992956879575129 ] } },
{ "type": "Feature", "properties": { "id": null, "name": "益興石炭商 許梅", "address": "大正1-34", "type": 6, "sort2": "石炭" }, "geometry": { "type": "Point", "coordinates": [ 120.206037336429134, 22.992956544747322 ] } },
{ "type": "Feature", "properties": { "id": null, "name": "昭和藥房", "address": "大正1-48", "type": 6, "sort2": "藥種, 賣藥" }, "geometry": { "type": "Point", "coordinates": [ 120.206747726297309, 22.993342681055818 ] } },
{ "type": "Feature", "properties": { "id": null, "name": "大阪商船株式會社臺南代理店", "address": "大正1-49, 50, 51", "type": 3, "sort2": "汽船" }, "geometry": { "type": "Point", "coordinates": [ 120.206718869213745, 22.993411263087008 ] } },
{ "type": "Feature", "properties": { "id": null, "name": "和成薪炭店 黃在中", "address": "大正1-8", "type": 6, "sort2": "薪炭" }, "geometry": { "type": "Point", "coordinates": [ 120.206224801264398, 22.993481523882064 ] } },
{ "type": "Feature", "properties": { "id": null, "name": "吉田商店", "address": "大正1-9", "type": 6, "sort2": "金物" }, "geometry": { "type": "Point", "coordinates": [ 120.206197442236288, 22.993505441078245 ] } },
{ "type": "Feature", "properties": { "id": null, "name": "芹澤運送店 芹澤兼三郎", "address": "大正2-119", "type": 3, "sort2": "運送" }, "geometry": { "type": "Point", "coordinates": [ 120.207725905772605, 22.994060041091444 ] } },
{ "type": "Feature", "properties": { "id": null, "name": "志んまた 篠崎又一, 富國徵兵保險相互會社台灣監督所 德村庄一, 土木建築會安部幸商店臺南出張店", "address": "大正2-20", "type": 6, "sort2": "飲食店, 保險, 土木建築, 砂糖肥料" }, "geometry": { "type": "Point", "coordinates": [ 120.207430996383096, 22.994348362789445 ] } },
{ "type": "Feature", "properties": { "id": null, "name": "臺南南部學術講習所 張朝塗", "address": "大正2-21", "type": 6, "sort2": "講習所" }, "geometry": { "type": "Point", "coordinates": [ 120.207211977029573, 22.99414108728967 ] } },
{ "type": "Feature", "properties": { "id": null, "name": "ともへ堂", "address": "大正2-27", "type": 6, "sort2": "紋繪" }, "geometry": { "type": "Point", "coordinates": [ 120.207342854121165, 22.995035187019102 ] } },
{ "type": "Feature", "properties": { "id": null, "name": "森茂商店 柯子杰", "address": "大正2-68", "type": 6, "sort2": "米" }, "geometry": { "type": "Point", "coordinates": [ 120.206694537693366, 22.99397584419113 ] } },
{ "type": "Feature", "properties": { "id": null, "name": "英文堂書店 上野隆", "address": "大正2-71", "type": 6, "sort2": "書籍, 雜誌" }, "geometry": { "type": "Point", "coordinates": [ 120.206561950283074, 22.9937987821109 ] } },
{ "type": "Feature", "properties": { "id": null, "name": "豐輪商會", "address": "大正2-82", "type": 3, "sort2": "自轉車 (腳踏車)" }, "geometry": { "type": "Point", "coordinates": [ 120.207026694299444, 22.993568101982085 ] } },
{ "type": "Feature", "properties": { "id": null, "name": "臺灣果實製品公司 戴戊己, 丸三組運送店", "address": "大正3-2", "type": 3, "sort2": "果物青物, 運送" }, "geometry": { "type": "Point", "coordinates": [ 120.211500742690873, 22.996586006124623 ] } },
{ "type": "Feature", "properties": { "id": null, "name": "六和商店", "address": "大宮1-1", "type": 6, "sort2": "和洋雜貨" }, "geometry": { "type": "Point", "coordinates": [ 120.20181613633136, 22.995290991731228 ] } },
{ "type": "Feature", "properties": { "id": null, "name": "山田商店 柴田勝太郎", "address": "大宮1-12, 田50-7", "type": 6, "sort2": "機械, 自動車" }, "geometry": { "type": "Point", "coordinates": [ 120.201658534752127, 22.994579735638279 ] } },
{ "type": "Feature", "properties": { "id": null, "name": "榮安堂西藥房 吳純仁", "address": "大宮1-21", "type": 6, "sort2": "藥種, 賣藥" }, "geometry": { "type": "Point", "coordinates": [ 120.201537204943108, 22.994216502791044 ] } },
{ "type": "Feature", "properties": { "id": null, "name": "田尻履物店 田尻五作", "address": "大宮1-24", "type": 6, "sort2": "草鞋" }, "geometry": { "type": "Point", "coordinates": [ 120.201483868855007, 22.994055616340656 ] } },
{ "type": "Feature", "properties": { "id": null, "name": "新建興 柯批", "address": "大宮1-28", "type": 6, "sort2": "酒, 菸草, 雜貨" }, "geometry": { "type": "Point", "coordinates": [ 120.20121520329802, 22.993950796553762 ] } },
{ "type": "Feature", "properties": { "id": null, "name": "新燦興硝子店 施定", "address": "大宮1-3", "type": 3, "sort2": "硝子" }, "geometry": { "type": "Point", "coordinates": [ 120.201795284099489, 22.995216982858473 ] } },
{ "type": "Feature", "properties": { "id": null, "name": "藤井日本堂", "address": "大宮1-31", "type": 6, "sort2": "印刷" }, "geometry": { "type": "Point", "coordinates": [ 120.2012463794795, 22.994079053682714 ] } },
{ "type": "Feature", "properties": { "id": null, "name": "岡田精美堂 (コロタイプ)", "address": "大宮1-32", "type": 6, "sort2": "玻璃板印刷" }, "geometry": { "type": "Point", "coordinates": [ 120.201255738141128, 22.994116545465264 ] } },
{ "type": "Feature", "properties": { "id": null, "name": "本村陶器店 本村勇次郎", "address": "大宮1-33", "type": 6, "sort2": "陶器" }, "geometry": { "type": "Point", "coordinates": [ 120.201272541291161, 22.994155060166001 ] } },
{ "type": "Feature", "properties": { "id": null, "name": "櫻榕社 入江俊明", "address": "大宮1-35", "type": 6, "sort2": "吳服" }, "geometry": { "type": "Point", "coordinates": [ 120.20129338149934, 22.994231039814522 ] } },
{ "type": "Feature", "properties": { "id": null, "name": "山吉商店 大脇吉兵衛", "address": "大宮1-36", "type": 6, "sort2": "金物" }, "geometry": { "type": "Point", "coordinates": [ 120.201303827694261, 22.994264595540855 ] } },
{ "type": "Feature", "properties": { "id": null, "name": "黑坂順治郎", "address": "大宮1-47", "type": 6, "sort2": "三味線" }, "geometry": { "type": "Point", "coordinates": [ 120.201358425025106, 22.994391985344532 ] } },
{ "type": "Feature", "properties": { "id": null, "name": "太資洋行", "address": "大宮1-5", "type": 6, "sort2": "和洋雜貨" }, "geometry": { "type": "Point", "coordinates": [ 120.201775559945176, 22.995132140442465 ] } },
{ "type": "Feature", "properties": { "id": null, "name": "明治製菓臺南販賣所", "address": "大宮1-52", "type": 6, "sort2": "菓子" }, "geometry": { "type": "Point", "coordinates": [ 120.201387067080944, 22.994589206553094 ] } },
{ "type": "Feature", "properties": { "id": null, "name": "今井吳服店 今井米太郎", "address": "大宮1-57", "type": 6, "sort2": "吳服" }, "geometry": { "type": "Point", "coordinates": [ 120.201416114892382, 22.994717452915875 ] } },
{ "type": "Feature", "properties": { "id": null, "name": "燦興硝子店 施玉", "address": "大宮1-58", "type": 6, "sort2": "硝子" }, "geometry": { "type": "Point", "coordinates": [ 120.201428608677148, 22.99476481433231 ] } },
{ "type": "Feature", "properties": { "id": null, "name": "片山硝子店 片山丑松", "address": "大宮1-61", "type": 6, "sort2": "硝子" }, "geometry": { "type": "Point", "coordinates": [ 120.201441125651272, 22.994808234328424 ] } },
{ "type": "Feature", "properties": { "id": null, "name": "頃安開進堂 頃安富三郎", "address": "大宮1-63", "type": 6, "sort2": "紙, 文具, 印刷" }, "geometry": { "type": "Point", "coordinates": [ 120.201460930687091, 22.9948792818148 ] } },
{ "type": "Feature", "properties": { "id": null, "name": "永隆發卸部 袁順成", "address": "大宮1-87", "type": 6, "sort2": "和洋雜貨" }, "geometry": { "type": "Point", "coordinates": [ 120.201594650412162, 22.995307612491015 ] } },
{ "type": "Feature", "properties": { "id": null, "name": "中谷看板店 中谷政之助", "address": "大宮2-11", "type": 6, "sort2": "看板" }, "geometry": { "type": "Point", "coordinates": [ 120.201204145963374, 22.993297431109941 ] } },
{ "type": "Feature", "properties": { "id": null, "name": "臺南實業協和會事業部", "address": "大宮2-17", "type": 6, "sort2": "會社" }, "geometry": { "type": "Point", "coordinates": [ 120.201177343183815, 22.993149488333682 ] } },
{ "type": "Feature", "properties": { "id": null, "name": "河村寫真館 河村榮太郎", "address": "大宮2-18", "type": 6, "sort2": "會社" }, "geometry": { "type": "Point", "coordinates": [ 120.201169066309731, 22.993109045846264 ] } },
{ "type": "Feature", "properties": { "id": null, "name": "劉爾瑞", "address": "大宮2-2", "type": 6, "sort2": "土木建築" }, "geometry": { "type": "Point", "coordinates": [ 120.201278275185203, 22.993542180145514 ] } },
{ "type": "Feature", "properties": { "id": null, "name": "首藤章 菸草賣捌所", "address": "大宮2-20", "type": 6, "sort2": "煙草" }, "geometry": { "type": "Point", "coordinates": [ 120.201161824773237, 22.99307353550001 ] } },
{ "type": "Feature", "properties": { "id": null, "name": "山城商店 山城理作", "address": "大宮2-30", "type": 6, "sort2": "酒類" }, "geometry": { "type": "Point", "coordinates": [ 120.201063633574776, 22.99366230007114 ] } },
{ "type": "Feature", "properties": { "id": null, "name": "臺南齒科商店", "address": "大宮2-31", "type": 6, "sort2": "醫療機械" }, "geometry": { "type": "Point", "coordinates": [ 120.201059602398928, 22.99362384976051 ] } },
{ "type": "Feature", "properties": { "id": null, "name": "蘭記精米所 汪坤", "address": "大宮2-34", "type": 6, "sort2": "米" }, "geometry": { "type": "Point", "coordinates": [ 120.201034673259528, 22.993519273319187 ] } },
{ "type": "Feature", "properties": { "id": null, "name": "兒仁井商店", "address": "大宮2-36", "type": 6, "sort2": "寫真機及材料" }, "geometry": { "type": "Point", "coordinates": [ 120.201014938199449, 22.993436401520572 ] } },
{ "type": "Feature", "properties": { "id": null, "name": "興山吳福店", "address": "大宮2-38", "type": 6, "sort2": "吳服" }, "geometry": { "type": "Point", "coordinates": [ 120.200999419852721, 22.993360448675354 ] } },
{ "type": "Feature", "properties": { "id": null, "name": "柴田銃砲店", "address": "大宮2-59", "type": 6, "sort2": "銃砲" }, "geometry": { "type": "Point", "coordinates": [ 120.20074615530379, 22.993170962764015 ] } },
{ "type": "Feature", "properties": { "id": null, "name": "阿波屋商行 阿波種次郎", "address": "大宮2-60", "type": 6, "sort2": "和洋雜貨" }, "geometry": { "type": "Point", "coordinates": [ 120.200936940733811, 22.993125612121336 ] } },
{ "type": "Feature", "properties": { "id": null, "name": "泉順精米所 許圓目", "address": "大宮2-62", "type": 6, "sort2": "米" }, "geometry": { "type": "Point", "coordinates": [ 120.200919218445335, 22.993062458144951 ] } },
{ "type": "Feature", "properties": { "id": null, "name": "末廣商店 吳珍, 梅月 陳茂己", "address": "大宮3-23\n", "type": 6, "sort2": "日用雜貨, 冰" }, "geometry": { "type": "Point", "coordinates": [ 120.200877467692735, 22.991837414945053 ] } },
{ "type": "Feature", "properties": { "id": null, "name": "丸和商會", "address": "大宮3-97", "type": 3, "sort2": "運送" }, "geometry": { "type": "Point", "coordinates": [ 120.20027161935046, 22.992600986732885 ] } },
{ "type": "Feature", "properties": { "id": null, "name": "臺灣時事新報社臺南支局 加藤光貴, 印刷部", "address": "大宮4-47", "type": 0, "sort2": "新聞, 雜誌, 印刷" }, "geometry": { "type": "Point", "coordinates": [ 120.200541006293122, 22.99140756799865 ] } },
{ "type": "Feature", "properties": { "id": null, "name": "石川食料品店 石川千可", "address": "大宮4-63", "type": 6, "sort2": "食料, 雜貨" }, "geometry": { "type": "Point", "coordinates": [ 120.200690797763528, 22.991997583595683 ] } },
{ "type": "Feature", "properties": { "id": null, "name": "臺南停車場, 鐵道ホテル", "address": "北門1-1\n", "type": 3, "sort2": "停車場, 旅館" }, "geometry": { "type": "Point", "coordinates": [ 120.212789508896932, 22.997078703883506 ] } },
{ "type": "Feature", "properties": { "id": null, "name": "臺灣運輸株式會社臺南支店 驛前荷捌所", "address": "北門1-11", "type": 3, "sort2": "運送" }, "geometry": { "type": "Point", "coordinates": [ 120.208898226483882, 22.999801643595752 ] } },
{ "type": "Feature", "properties": { "id": null, "name": "王潘土木建築請負所", "address": "北門1-20", "type": 6, "sort2": "土木建築" }, "geometry": { "type": "Point", "coordinates": [ 120.20976153489444, 22.999422638530113 ] } },
{ "type": "Feature", "properties": { "id": null, "name": "中村庵", "address": "北門1-23", "type": 6, "sort2": "土木建築" }, "geometry": { "type": "Point", "coordinates": [ 120.209832718975704, 22.999627953719123 ] } },
{ "type": "Feature", "properties": { "id": null, "name": "矢盛工務所 矢盛孝一郎", "address": "北門2-11", "type": 6, "sort2": "土木建築" }, "geometry": { "type": "Point", "coordinates": [ 120.211560628465961, 22.999195111932615 ] } },
{ "type": "Feature", "properties": { "id": null, "name": "官鹽配運館 陳樹養", "address": "北門2-28", "type": 3, "sort2": "運送" }, "geometry": { "type": "Point", "coordinates": [ 120.212076336157452, 22.99873553248203 ] } },
{ "type": "Feature", "properties": { "id": null, "name": "永野英太郎", "address": "北門2-37-1", "type": 6, "sort2": "食料, 雜貨" }, "geometry": { "type": "Point", "coordinates": [ 120.212333329183963, 22.998837319988827 ] } },
{ "type": "Feature", "properties": { "id": null, "name": "基隆手操漁業組合直扱所 小寺茂久二, 堂崎商店 堂崎善四郎", "address": "北門2-48", "type": 6, "sort2": "漁業, 石炭" }, "geometry": { "type": "Point", "coordinates": [ 120.212200156067524, 22.998124963083651 ] } },
{ "type": "Feature", "properties": { "id": null, "name": "清本忠勇堂", "address": "北門2-50", "type": 6, "sort2": "兵舍, 地圖" }, "geometry": { "type": "Point", "coordinates": [ 120.212153294922643, 22.997946375244734 ] } },
{ "type": "Feature", "properties": { "id": null, "name": "日東商船組臺南支店 大坪佐苦樂, 福興樓 張華焰", "address": "北門2-51", "type": 3, "sort2": "運送, 台灣料理" }, "geometry": { "type": "Point", "coordinates": [ 120.212166461785344, 22.997878449138298 ] } },
{ "type": "Feature", "properties": { "id": null, "name": "臺灣日報社", "address": "北門2-61", "type": 0, "sort2": "新聞, 雜誌" }, "geometry": { "type": "Point", "coordinates": [ 120.211243869868738, 22.997838383820206 ] } },
{ "type": "Feature", "properties": { "id": null, "name": "金益順白米商店 賴源爵, 崇文堂書店 曾右章", "address": "末廣1-16", "type": 6, "sort2": "米, 書籍雜誌" }, "geometry": { "type": "Point", "coordinates": [ 120.203411710708608, 22.991919400737739 ] } },
{ "type": "Feature", "properties": { "id": null, "name": "中村洋家具商店 中村東助, 西村商會臺南支店 西村武四郎", "address": "末廣2-10", "type": 6, "sort2": "家具, 食料雜貨" }, "geometry": { "type": "Point", "coordinates": [ 120.202545571408777, 22.992060880303427 ] } },
{ "type": "Feature", "properties": { "id": null, "name": "山本時計蓄音器店", "address": "末廣2-104", "type": 6, "sort2": "時計, 金銀細工" }, "geometry": { "type": "Point", "coordinates": [ 120.202088133533906, 22.991840807140431 ] } },
{ "type": "Feature", "properties": { "id": null, "name": "小出商行 小出平左衛門", "address": "末廣2-105", "type": 6, "sort2": "和洋雜貨" }, "geometry": { "type": "Point", "coordinates": [ 120.202015702702653, 22.991850296179511 ] } },
{ "type": "Feature", "properties": { "id": null, "name": "水木紙函製造所 水木房吉", "address": "末廣2-109", "type": 6, "sort2": "箱類" }, "geometry": { "type": "Point", "coordinates": [ 120.202273703597768, 22.992139327760377 ] } },
{ "type": "Feature", "properties": { "id": null, "name": "五端第二支店 主任山本壽太郎, 野坂新太郎", "address": "末廣2-110", "type": 6, "sort2": "漆器, 食料雜貨" }, "geometry": { "type": "Point", "coordinates": [ 120.202206582589938, 22.992150814388282 ] } },
{ "type": "Feature", "properties": { "id": null, "name": "福景治雄商店支店", "address": "末廣2-111", "type": 3, "sort2": "自轉車 (腳踏車)" }, "geometry": { "type": "Point", "coordinates": [ 120.201919929891091, 22.992209479086661 ] } },
{ "type": "Feature", "properties": { "id": null, "name": "金林商行用達部, 金林商行和洋雜貨部", "address": "末廣2-112, 113", "type": 6, "sort2": "用達, 和洋雜貨" }, "geometry": { "type": "Point", "coordinates": [ 120.201824026100383, 22.992228703630097 ] } },
{ "type": "Feature", "properties": { "id": null, "name": "文章堂 柚木房雄", "address": "末廣2-116", "type": 6, "sort2": "印刷" }, "geometry": { "type": "Point", "coordinates": [ 120.201695076512706, 22.992256630062261 ] } },
{ "type": "Feature", "properties": { "id": null, "name": "阿波屋商行小賣部", "address": "末廣2-118", "type": 6, "sort2": "和洋雜貨" }, "geometry": { "type": "Point", "coordinates": [ 120.201641785655738, 22.992269171521219 ] } },
{ "type": "Feature", "properties": { "id": null, "name": "三井物產株式會社高雄支店臺南派出員, 首席社宅, ハンベー商店 竹中重雄", "address": "末廣2-120", "type": 6, "sort2": "會社, 會社員, 寫真機" }, "geometry": { "type": "Point", "coordinates": [ 120.201513929278221, 22.992292176391178 ] } },
{ "type": "Feature", "properties": { "id": null, "name": "山榮金物店", "address": "末廣2-128", "type": 6, "sort2": "金物" }, "geometry": { "type": "Point", "coordinates": [ 120.201196561691376, 22.992325064964813 ] } },
{ "type": "Feature", "properties": { "id": null, "name": "田中寫真館 田中啓治", "address": "末廣2-138", "type": 6, "sort2": "寫真館" }, "geometry": { "type": "Point", "coordinates": [ 120.201846251891382, 22.991887872586442 ] } },
{ "type": "Feature", "properties": { "id": null, "name": "大阪朝日新聞社台南通信部, 臺灣宅商會臺南支店, 本村洋品店", "address": "末廣2-143", "type": 6, "sort2": "新聞雜誌, 酒, 和洋雜貨" }, "geometry": { "type": "Point", "coordinates": [ 120.201347495094865, 22.991997692925239 ] } },
{ "type": "Feature", "properties": { "id": null, "name": "鴻文活版舍 黃振耀", "address": "末廣2-149", "type": 6, "sort2": "印刷" }, "geometry": { "type": "Point", "coordinates": [ 120.201595134788377, 22.99169544269963 ] } },
{ "type": "Feature", "properties": { "id": null, "name": "ハヤシ百貨店", "address": "末廣2-18", "type": 6, "sort2": "吳服" }, "geometry": { "type": "Point", "coordinates": [ 120.202581451970573, 22.991750664760449 ] } },
{ "type": "Feature", "properties": { "id": null, "name": "近藤商會臺南支店酒類賣捌所, 山內時計店 福山三郎", "address": "末廣2-20", "type": 6, "sort2": "食料, 時計, 酒" }, "geometry": { "type": "Point", "coordinates": [ 120.202308723082723, 22.991794619501899 ] } },
{ "type": "Feature", "properties": { "id": null, "name": "愛國堂 角谷力男", "address": "末廣2-20-2", "type": 6, "sort2": "藥種, 賣藥" }, "geometry": { "type": "Point", "coordinates": [ 120.202445093333992, 22.991771656835098 ] } },
{ "type": "Feature", "properties": { "id": null, "name": "渡邊商店", "address": "本1-15", "type": 6, "sort2": "金物" }, "geometry": { "type": "Point", "coordinates": [ 120.206425656092975, 22.993968361159958 ] } },
{ "type": "Feature", "properties": { "id": null, "name": "捷輪商行合名會社 林年豐", "address": "本1-30", "type": 3, "sort2": "自轉車 (腳踏車)" }, "geometry": { "type": "Point", "coordinates": [ 120.206195318211897, 22.994043081787375 ] } },
{ "type": "Feature", "properties": { "id": null, "name": "三共藥房 郭水樹", "address": "本1-57", "type": 6, "sort2": "藥種, 賣藥" }, "geometry": { "type": "Point", "coordinates": [ 120.205702141247116, 22.994289912158738 ] } },
{ "type": "Feature", "properties": { "id": null, "name": "愛農園 佐藤茂一", "address": "本1-70", "type": 6, "sort2": "青果輸移出" }, "geometry": { "type": "Point", "coordinates": [ 120.205767672398323, 22.99400447911156 ] } },
{ "type": "Feature", "properties": { "id": null, "name": "泉興古金物商店 陳鴻", "address": "本1-95", "type": 6, "sort2": "金物" }, "geometry": { "type": "Point", "coordinates": [ 120.206036487461844, 22.993902361176922 ] } },
{ "type": "Feature", "properties": { "id": null, "name": "近江屋金庫店 木下光之助", "address": "本1-97", "type": 6, "sort2": "金庫 (保險箱)" }, "geometry": { "type": "Point", "coordinates": [ 120.206108010398012, 22.993866260377175 ] } },
{ "type": "Feature", "properties": { "id": null, "name": "信成商會 楊致祥", "address": "本2-119", "type": 6, "sort2": "手藝材料" }, "geometry": { "type": "Point", "coordinates": [ 120.205149186841737, 22.994202395603885 ] } },
{ "type": "Feature", "properties": { "id": null, "name": "エビシ堂 陳水生", "address": "本2-122", "type": 6, "sort2": "文房具" }, "geometry": { "type": "Point", "coordinates": [ 120.205085739683398, 22.994313425721099 ] } },
{ "type": "Feature", "properties": { "id": null, "name": "松和金物店", "address": "本2-123", "type": 6, "sort2": "金物" }, "geometry": { "type": "Point", "coordinates": [ 120.205042038778998, 22.994324045661084 ] } },
{ "type": "Feature", "properties": { "id": null, "name": "江泉雜貨店 陳江海", "address": "本2-155", "type": 6, "sort2": "食料, 雜貨" }, "geometry": { "type": "Point", "coordinates": [ 120.20466456829881, 22.994441382547009 ] } },
{ "type": "Feature", "properties": { "id": null, "name": "江山錻力店 郭江山", "address": "本2-186", "type": 6, "sort2": "錻力 (馬口鐵)" }, "geometry": { "type": "Point", "coordinates": [ 120.203694156839262, 22.994755772129061 ] } },
{ "type": "Feature", "properties": { "id": null, "name": "西商店 西藤吉", "address": "本2-187", "type": 6, "sort2": "傘" }, "geometry": { "type": "Point", "coordinates": [ 120.203744272855616, 22.994740257890196 ] } },
{ "type": "Feature", "properties": { "id": null, "name": "三共金物店 田邊強", "address": "本2-190", "type": 6, "sort2": "金物" }, "geometry": { "type": "Point", "coordinates": [ 120.203849814953386, 22.994711226820051 ] } },
{ "type": "Feature", "properties": { "id": null, "name": "龍泉堂", "address": "本2-191", "type": 6, "sort2": "書籍雜誌" }, "geometry": { "type": "Point", "coordinates": [ 120.203899942491788, 22.994693741820026 ] } },
{ "type": "Feature", "properties": { "id": null, "name": "時敏齋 鄭老得", "address": "本2-192", "type": 6, "sort2": "時計, 金銀細工" }, "geometry": { "type": "Point", "coordinates": [ 120.203938310388196, 22.994685066170177 ] } },
{ "type": "Feature", "properties": { "id": null, "name": "龜甲萬醬油販賣株式會社", "address": "本2-193", "type": 6, "sort2": "味噌, 醬油" }, "geometry": { "type": "Point", "coordinates": [ 120.203976695610564, 22.994673434444529 ] } },
{ "type": "Feature", "properties": { "id": null, "name": "美利安洋品店 蔡明達", "address": "本2-194", "type": 6, "sort2": "和洋雜貨" }, "geometry": { "type": "Point", "coordinates": [ 120.204016139380442, 22.994662793412758 ] } },
{ "type": "Feature", "properties": { "id": null, "name": "平和金物店 吳火樹", "address": "本2-202", "type": 6, "sort2": "金物" }, "geometry": { "type": "Point", "coordinates": [ 120.204227304157101, 22.994590935853914 ] } },
{ "type": "Feature", "properties": { "id": null, "name": "參神堂藥局 津川福一", "address": "本2-212", "type": 6, "sort2": "藥種, 賣藥" }, "geometry": { "type": "Point", "coordinates": [ 120.204359535123885, 22.994548243119652 ] } },
{ "type": "Feature", "properties": { "id": null, "name": "島田清諒園茶舖", "address": "本2-213", "type": 6, "sort2": "茶" }, "geometry": { "type": "Point", "coordinates": [ 120.2043989672827, 22.994539572701662 ] } },
{ "type": "Feature", "properties": { "id": null, "name": "櫻井洋服店", "address": "本2-23", "type": 6, "sort2": "洋服" }, "geometry": { "type": "Point", "coordinates": [ 120.204367795645183, 22.995136559171542 ] } },
{ "type": "Feature", "properties": { "id": null, "name": "安順養魚場 林叔桓", "address": "本2-243", "type": 6, "sort2": "養魚" }, "geometry": { "type": "Point", "coordinates": [ 120.203898926263548, 22.994140936007671 ] } },
{ "type": "Feature", "properties": { "id": null, "name": "藤川屋書店", "address": "本2-41", "type": 6, "sort2": "書籍雜誌" }, "geometry": { "type": "Point", "coordinates": [ 120.204949943838258, 22.994601461965587 ] } },
{ "type": "Feature", "properties": { "id": null, "name": "泉成發", "address": "本2-45", "type": 6, "sort2": "食料, 雜貨" }, "geometry": { "type": "Point", "coordinates": [ 120.204815543932469, 22.994651042000797 ] } },
{ "type": "Feature", "properties": { "id": null, "name": "養生軒", "address": "本2-52", "type": 6, "sort2": "パン製造" }, "geometry": { "type": "Point", "coordinates": [ 120.2046192684369, 22.994724945875785 ] } },
{ "type": "Feature", "properties": { "id": null, "name": "臺南洋家具商會 劉揚名", "address": "本2-58,60", "type": 6, "sort2": "家具" }, "geometry": { "type": "Point", "coordinates": [ 120.204489206445544, 22.99476075202406 ] } },
{ "type": "Feature", "properties": { "id": null, "name": "金益興商行 王汝禎", "address": "本2-62, 66", "type": 6, "sort2": "海產物" }, "geometry": { "type": "Point", "coordinates": [ 120.204297384287358, 22.994801174781127 ] } },
{ "type": "Feature", "properties": { "id": null, "name": "辰馬商會臺南支店", "address": "本2-69", "type": 6, "sort2": "酒類" }, "geometry": { "type": "Point", "coordinates": [ 120.204167218186853, 22.994854717058974 ] } },
{ "type": "Feature", "properties": { "id": null, "name": "古梅菓子店", "address": "本2-72", "type": 6, "sort2": "菓子" }, "geometry": { "type": "Point", "coordinates": [ 120.203991239482136, 22.994915912106222 ] } },
{ "type": "Feature", "properties": { "id": null, "name": "南部靴店 吳象", "address": "本2-75", "type": 6, "sort2": "靴" }, "geometry": { "type": "Point", "coordinates": [ 120.203847288832563, 22.994960516388655 ] } },
{ "type": "Feature", "properties": { "id": null, "name": "時祥堂 王俊惠", "address": "本3-102", "type": 6, "sort2": "時計, 金銀細工" }, "geometry": { "type": "Point", "coordinates": [ 120.203149367532518, 22.995181182162675 ] } },
{ "type": "Feature", "properties": { "id": null, "name": "矢頃臺南支店 矢頃為次郎", "address": "本3-105", "type": 6, "sort2": "食料, 雜貨" }, "geometry": { "type": "Point", "coordinates": [ 120.203271950999252, 22.995150266442749 ] } },
{ "type": "Feature", "properties": { "id": null, "name": "田中吳服店 田中正茂", "address": "本3-107", "type": 6, "sort2": "吳服" }, "geometry": { "type": "Point", "coordinates": [ 120.20333701991602, 22.995125959083502 ] } },
{ "type": "Feature", "properties": { "id": null, "name": "愛國堂藥房 角谷力男", "address": "本3-173", "type": 6, "sort2": "藥種, 賣藥" }, "geometry": { "type": "Point", "coordinates": [ 120.203202288651696, 22.994869081533636 ] } },
{ "type": "Feature", "properties": { "id": null, "name": "舊足成金銀商 詹得材", "address": "本3-188", "type": 6, "sort2": "地金銀" }, "geometry": { "type": "Point", "coordinates": [ 120.202982556224072, 22.994949763053565 ] } },
{ "type": "Feature", "properties": { "id": null, "name": "澤田洋服店 澤田皎三", "address": "本3-192", "type": 6, "sort2": "洋服" }, "geometry": { "type": "Point", "coordinates": [ 120.20288880820344, 22.994964072118954 ] } },
{ "type": "Feature", "properties": { "id": null, "name": "漱竹居 洪松", "address": "本3-203", "type": 6, "sort2": "紙, 文具" }, "geometry": { "type": "Point", "coordinates": [ 120.202719139604127, 22.995038107481776 ] } },
{ "type": "Feature", "properties": { "id": null, "name": "金煌商店 莊金煌", "address": "本3-212", "type": 6, "sort2": "和洋雜貨" }, "geometry": { "type": "Point", "coordinates": [ 120.20240514654752, 22.995129645666427 ] } },
{ "type": "Feature", "properties": { "id": null, "name": "トミヤ", "address": "本3-218", "type": 6, "sort2": "喫茶店" }, "geometry": { "type": "Point", "coordinates": [ 120.202326270079865, 22.995148956191684 ] } },
{ "type": "Feature", "properties": { "id": null, "name": "清泉羅紗店", "address": "本3-219", "type": 6, "sort2": "綿布, 羅紗" }, "geometry": { "type": "Point", "coordinates": [ 120.202278311378095, 22.995159553916828 ] } },
{ "type": "Feature", "properties": { "id": null, "name": "枝村貞商店 枝村貞四郎", "address": "本3-223", "type": 6, "sort2": "物品販賣" }, "geometry": { "type": "Point", "coordinates": [ 120.202161014631116, 22.9951964077935 ] } },
{ "type": "Feature", "properties": { "id": null, "name": "林惟興支店", "address": "本3-228", "type": 6, "sort2": "硝子" }, "geometry": { "type": "Point", "coordinates": [ 120.202010682919095, 22.995239992861848 ] } },
{ "type": "Feature", "properties": { "id": null, "name": "臺南南報印刷部 寺川喜三郎", "address": "本3-234", "type": 6, "sort2": "印刷" }, "geometry": { "type": "Point", "coordinates": [ 120.201822216776975, 22.995343001378536 ] } },
{ "type": "Feature", "properties": { "id": null, "name": "福利商店 柯福", "address": "本3-30", "type": 6, "sort2": "和洋雜貨" }, "geometry": { "type": "Point", "coordinates": [ 120.202165737982341, 22.99611333145133 ] } },
{ "type": "Feature", "properties": { "id": null, "name": "金成發商行 城再發", "address": "本3-38", "type": 6, "sort2": "砂糖" }, "geometry": { "type": "Point", "coordinates": [ 120.202103920495674, 22.995946490191475 ] } },
{ "type": "Feature", "properties": { "id": null, "name": "建泰商行 李連三", "address": "本3-49", "type": 6, "sort2": "砂糖" }, "geometry": { "type": "Point", "coordinates": [ 120.202031685628072, 22.995741166454337 ] } },
{ "type": "Feature", "properties": { "id": null, "name": "榮安堂藥店支店 吳永授", "address": "本3-62", "type": 6, "sort2": "藥種, 賣藥" }, "geometry": { "type": "Point", "coordinates": [ 120.201998339800042, 22.995529140907003 ] } },
{ "type": "Feature", "properties": { "id": null, "name": "浩然堂圖書印刷公司 杜榮陞", "address": "本3-69", "type": 6, "sort2": "書籍雜誌" }, "geometry": { "type": "Point", "coordinates": [ 120.202242426074704, 22.99547026189207 ] } },
{ "type": "Feature", "properties": { "id": null, "name": "愛生堂 高島鈴三郎", "address": "本3-70", "type": 6, "sort2": "藥種, 賣藥" }, "geometry": { "type": "Point", "coordinates": [ 120.202288279374372, 22.995455712042151 ] } },
{ "type": "Feature", "properties": { "id": null, "name": "鄭三妹洋服支店 林家松", "address": "本3-72", "type": 6, "sort2": "洋服" }, "geometry": { "type": "Point", "coordinates": [ 120.202350086127851, 22.995443213278783 ] } },
{ "type": "Feature", "properties": { "id": null, "name": "新春益商行 黃道川", "address": "本3-75", "type": 6, "sort2": "油類" }, "geometry": { "type": "Point", "coordinates": [ 120.202450301577159, 22.995415141725907 ] } },
{ "type": "Feature", "properties": { "id": null, "name": "四海靴店", "address": "本3-77", "type": 6, "sort2": "靴" }, "geometry": { "type": "Point", "coordinates": [ 120.202543060849621, 22.995388017957666 ] } },
{ "type": "Feature", "properties": { "id": null, "name": "西履物店 河合藤太", "address": "本3-114", "type": 6, "sort2": "草鞋" }, "geometry": { "type": "Point", "coordinates": [ 120.20317055576254, 22.995107384921859 ] } },
{ "type": "Feature", "properties": { "id": null, "name": "長房金足成 孫消波", "address": "本3-78", "type": 6, "sort2": "地金銀" }, "geometry": { "type": "Point", "coordinates": [ 120.202595282744255, 22.995376456229963 ] } },
{ "type": "Feature", "properties": { "id": null, "name": "英進靴店", "address": "本3-81", "type": 6, "sort2": "靴" }, "geometry": { "type": "Point", "coordinates": [ 120.202726154888637, 22.99574663401976 ] } },
{ "type": "Feature", "properties": { "id": null, "name": "越智商店 越智寅一", "address": "本3-87", "type": 6, "sort2": "和洋雜貨" }, "geometry": { "type": "Point", "coordinates": [ 120.202778504691352, 22.995350773049562 ] } },
{ "type": "Feature", "properties": { "id": null, "name": "八幡洋服店 八幡喜一", "address": "本3-99", "type": 6, "sort2": "洋服" }, "geometry": { "type": "Point", "coordinates": [ 120.203022671319033, 22.995278097840448 ] } },
{ "type": "Feature", "properties": { "id": null, "name": "錦昌祖鋪 黃汝南", "address": "明治2-22", "type": 6, "sort2": "地金銀" }, "geometry": { "type": "Point", "coordinates": [ 120.205590383441404, 22.998789259918325 ] } },
{ "type": "Feature", "properties": { "id": null, "name": "瑞益商會", "address": "明治2-5", "type": 6, "sort2": "セメント" }, "geometry": { "type": "Point", "coordinates": [ 120.206561587383405, 22.999072006360926 ] } },
{ "type": "Feature", "properties": { "id": null, "name": "蔡鐘麟 捷成商店", "address": "明治2-65", "type": 6, "sort2": "冰, 飲料" }, "geometry": { "type": "Point", "coordinates": [ 120.204763301832585, 22.998615623506776 ] } },
{ "type": "Feature", "properties": { "id": null, "name": "義和鐵工場 陳雨生, 千乘鐵工場", "address": "明治2-78", "type": 6, "sort2": "鐵工" }, "geometry": { "type": "Point", "coordinates": [ 120.205102640812868, 22.998631929518609 ] } },
{ "type": "Feature", "properties": { "id": null, "name": "荒木商店 荒木虎雄", "address": "明治2-88", "type": 6, "sort2": "セメント" }, "geometry": { "type": "Point", "coordinates": [ 120.205629853181705, 22.998189964334838 ] } },
{ "type": "Feature", "properties": { "id": null, "name": "華南藥局 野口治平, 蛇の目壽し 小川國夫, 臺和商行臺南出張所 武勇武千代, ちとせ蓄音商會 武永武千代", "address": "明治2-94", "type": 6, "sort2": "藥種, 飲食店, 材木, 樂器" }, "geometry": { "type": "Point", "coordinates": [ 120.206732449606974, 22.997883503133536 ] } },
{ "type": "Feature", "properties": { "id": null, "name": "許全", "address": "明治3-144", "type": 6, "sort2": "土木建築" }, "geometry": { "type": "Point", "coordinates": [ 120.202382962609008, 22.998495262582246 ] } },
{ "type": "Feature", "properties": { "id": null, "name": "川中鐵工所 川中忠五郎", "address": "明治3-149", "type": 6, "sort2": "鐵工" }, "geometry": { "type": "Point", "coordinates": [ 120.202349837196678, 22.99906070602465 ] } },
{ "type": "Feature", "properties": { "id": null, "name": "臺灣輕鐵株式會社, 臺灣南部通運株式會社", "address": "明治3-36", "type": 3, "sort2": "自動車 (汽車)" }, "geometry": { "type": "Point", "coordinates": [ 120.201513510831589, 22.999735421344639 ] } },
{ "type": "Feature", "properties": { "id": null, "name": "同和商店 黃芋粿", "address": "明治3-41", "type": 6, "sort2": "油類" }, "geometry": { "type": "Point", "coordinates": [ 120.201900659085013, 22.999604345844599 ] } },
{ "type": "Feature", "properties": { "id": null, "name": "新永興", "address": "明治3-54", "type": 6, "sort2": "食料, 雜貨" }, "geometry": { "type": "Point", "coordinates": [ 120.202272529083373, 22.999537242364855 ] } },
{ "type": "Feature", "properties": { "id": null, "name": "共成商會 張德和", "address": "明治3-57", "type": 3, "sort2": "自動車 (汽車)" }, "geometry": { "type": "Point", "coordinates": [ 120.202419146475108, 22.999401997796657 ] } },
{ "type": "Feature", "properties": { "id": null, "name": "振發號 陳興泰", "address": "明治3-81", "type": 6, "sort2": "薪炭" }, "geometry": { "type": "Point", "coordinates": [ 120.204395727089377, 22.999293225633071 ] } },
{ "type": "Feature", "properties": { "id": null, "name": "盛興石炭店", "address": "明治3-93", "type": 6, "sort2": "石炭" }, "geometry": { "type": "Point", "coordinates": [ 120.203882649125859, 22.998598524178107 ] } },
{ "type": "Feature", "properties": { "id": null, "name": "玉豐米舖 王開泰", "address": "幸2-1", "type": 6, "sort2": "米" }, "geometry": { "type": "Point", "coordinates": [ 120.205615663146787, 22.990087858207918 ] } },
{ "type": "Feature", "properties": { "id": null, "name": "多賀商店", "address": "幸1-4", "type": 6, "sort2": "用達" }, "geometry": { "type": "Point", "coordinates": [ 120.205368949777991, 22.991905919069609 ] } },
{ "type": "Feature", "properties": { "id": null, "name": "南督土木建築請負業組合", "address": "幸1-28", "type": 6, "sort2": "土木建築" }, "geometry": { "type": "Point", "coordinates": [ 120.204945002507799, 22.990584072629318 ] } },
{ "type": "Feature", "properties": { "id": null, "name": "建昌藥材公司", "address": "本4-114", "type": 6, "sort2": "藥種, 賣藥" }, "geometry": { "type": "Point", "coordinates": [ 120.201329384238633, 22.995792721791151 ] } },
{ "type": "Feature", "properties": { "id": null, "name": "錦興吳服店", "address": "本4-122", "type": 6, "sort2": "吳服" }, "geometry": { "type": "Point", "coordinates": [ 120.20116046930157, 22.995840787046738 ] } },
{ "type": "Feature", "properties": { "id": null, "name": "益生商行 吳昌", "address": "本4-130", "type": 6, "sort2": "紙, 文具" }, "geometry": { "type": "Point", "coordinates": [ 120.201002820565364, 22.995884745797547 ] } },
{ "type": "Feature", "properties": { "id": null, "name": "山陽堂 田淵蕃", "address": "本4-155", "type": 6, "sort2": "藥種, 賣藥" }, "geometry": { "type": "Point", "coordinates": [ 120.200569434646397, 22.99598039320588 ] } },
{ "type": "Feature", "properties": { "id": null, "name": "金勝隆商店 黃燿輝", "address": "本4-168", "type": 6, "sort2": "金物" }, "geometry": { "type": "Point", "coordinates": [ 120.200486106807602, 22.996194374742153 ] } },
{ "type": "Feature", "properties": { "id": null, "name": "金同成商店 邱天賜", "address": "本4-174", "type": 6, "sort2": "和洋雜貨" }, "geometry": { "type": "Point", "coordinates": [ 120.200240284498918, 22.996129645835257 ] } },
{ "type": "Feature", "properties": { "id": null, "name": "施振源商行", "address": "本4-181", "type": 6, "sort2": "和洋雜貨" }, "geometry": { "type": "Point", "coordinates": [ 120.199949091276551, 22.99622861131682 ] } },
{ "type": "Feature", "properties": { "id": null, "name": "臺灣電力株式會社臺南出張所 本町散宿所", "address": "本4-193", "type": 9, "sort2": "電氣" }, "geometry": { "type": "Point", "coordinates": [ 120.199885101248455, 22.995831748370332 ] } },
{ "type": "Feature", "properties": { "id": null, "name": "萬生商會 洪文烈", "address": "本4-197", "type": 6, "sort2": "糖粉, 雜貨" }, "geometry": { "type": "Point", "coordinates": [ 120.20003983248391, 22.995805989774269 ] } },
{ "type": "Feature", "properties": { "id": null, "name": "振昌商行", "address": "本4-198", "type": 6, "sort2": "海陸產物卸" }, "geometry": { "type": "Point", "coordinates": [ 120.200076979500309, 22.995797851067508 ] } },
{ "type": "Feature", "properties": { "id": null, "name": "謝恒懋", "address": "本4-200", "type": 6, "sort2": "土地建物貸付" }, "geometry": { "type": "Point", "coordinates": [ 120.200158053958319, 22.995803369135881 ] } },
{ "type": "Feature", "properties": { "id": null, "name": "金協利 林井", "address": "本4-211", "type": 6, "sort2": "冰, 飲料" }, "geometry": { "type": "Point", "coordinates": [ 120.200377914182354, 22.995667190496274 ] } },
{ "type": "Feature", "properties": { "id": null, "name": "春成精米所 王在", "address": "本4-226", "type": 6, "sort2": "米" }, "geometry": { "type": "Point", "coordinates": [ 120.200403186594443, 22.995193760026691 ] } },
{ "type": "Feature", "properties": { "id": null, "name": "伊東慶商店 伊東慶太郎", "address": "本4-228", "type": 6, "sort2": "草染, 吳服" }, "geometry": { "type": "Point", "coordinates": [ 120.200587839415078, 22.995145774983218 ] } },
{ "type": "Feature", "properties": { "id": null, "name": "成發號 城阿全", "address": "本4-252", "type": 6, "sort2": "砂糖" }, "geometry": { "type": "Point", "coordinates": [ 120.200544219225989, 22.995680519330971 ] } },
{ "type": "Feature", "properties": { "id": null, "name": "笠毛商店 笠毛親雄", "address": "本4-272", "type": 6, "sort2": "度量衡" }, "geometry": { "type": "Point", "coordinates": [ 120.200866760601883, 22.995316830571383 ] } },
{ "type": "Feature", "properties": { "id": null, "name": "金德利商店 林清華", "address": "本4-265", "type": 6, "sort2": "雜貨卸" }, "geometry": { "type": "Point", "coordinates": [ 120.200804502065466, 22.995580355980497 ] } },
{ "type": "Feature", "properties": { "id": null, "name": "新復發", "address": "本4-33", "type": 6, "sort2": "吳服" }, "geometry": { "type": "Point", "coordinates": [ 120.200991176895528, 22.996621564189407 ] } },
{ "type": "Feature", "properties": { "id": null, "name": "昭德自動車公司", "address": "永樂1-132", "type": 3, "sort2": "自動車 (汽車)" }, "geometry": { "type": "Point", "coordinates": [ 120.198007516157318, 22.997950141179729 ] } },
{ "type": "Feature", "properties": { "id": null, "name": "金源合鐵工場本店 翁金護", "address": "永樂1-203", "type": 6, "sort2": "鐵工" }, "geometry": { "type": "Point", "coordinates": [ 120.197109800388034, 22.998808404874982 ] } },
{ "type": "Feature", "properties": { "id": null, "name": "金源合鐵工場 翁螺", "address": "永樂1-204, 205", "type": 6, "sort2": "鐵工" }, "geometry": { "type": "Point", "coordinates": [ 120.197216790631145, 22.998776682809275 ] } },
{ "type": "Feature", "properties": { "id": null, "name": "榮本商行 吳登壽", "address": "永樂1-211", "type": 6, "sort2": "肥皂" }, "geometry": { "type": "Point", "coordinates": [ 120.197202937226493, 22.998267668275044 ] } },
{ "type": "Feature", "properties": { "id": null, "name": "楊永泉", "address": "永樂1-222", "type": 6, "sort2": "土木建築" }, "geometry": { "type": "Point", "coordinates": [ 120.197804349173936, 22.998023008191328 ] } },
{ "type": "Feature", "properties": { "id": null, "name": "震源白米商店 許有祿", "address": "永樂1-223", "type": 6, "sort2": "米" }, "geometry": { "type": "Point", "coordinates": [ 120.197868930304026, 22.998001825668165 ] } },
{ "type": "Feature", "properties": { "id": null, "name": "協豐精米工場 吳自在", "address": "永樂1-32", "type": 6, "sort2": "米" }, "geometry": { "type": "Point", "coordinates": [ 120.198819658047825, 22.997937945468635 ] } },
{ "type": "Feature", "properties": { "id": null, "name": "盛春化學工業研究所 張盛興", "address": "永樂2-114", "type": 6, "sort2": "化妝品, 藥種" }, "geometry": { "type": "Point", "coordinates": [ 120.198467785839057, 22.998126282238893 ] } },
{ "type": "Feature", "properties": { "id": null, "name": "柿田榮吉", "address": "田15", "type": 6, "sort2": "土木建築" }, "geometry": { "type": "Point", "coordinates": [ 120.196693368363356, 22.993883375085623 ] } },
{ "type": "Feature", "properties": { "id": null, "name": "世界館", "address": "田42", "type": 6, "sort2": "活動, 劇場" }, "geometry": { "type": "Point", "coordinates": [ 120.197224771111564, 22.992737040412031 ] } },
{ "type": "Feature", "properties": { "id": null, "name": "益豐自動車部 陳秋材", "address": "田42-16", "type": 3, "sort2": "自動車 (汽車)" }, "geometry": { "type": "Point", "coordinates": [ 120.197082249738372, 22.993265037761425 ] } },
{ "type": "Feature", "properties": { "id": null, "name": "益源商行 林元德", "address": "田42-21", "type": 6, "sort2": "米" }, "geometry": { "type": "Point", "coordinates": [ 120.196959177578861, 22.993292168264396 ] } },
{ "type": "Feature", "properties": { "id": null, "name": "近海郵船運河別捌所, 三井物產株式會社高雄支店臺南派出員近海郵船運河荷捌所, 臺灣運輸株式會社臺南支店, マツダ石鹼工場 松田鐵基", "address": "田49", "type": 3, "sort2": "運送, 汽船" }, "geometry": { "type": "Point", "coordinates": [ 120.193342498282306, 22.995020926442766 ] } },
{ "type": "Feature", "properties": { "id": null, "name": "池邊庵 池邊來太郎", "address": "田7", "type": 6, "sort2": "華道茶道教授" }, "geometry": { "type": "Point", "coordinates": [ 120.197115832434008, 22.993922985062063 ] } },
{ "type": "Feature", "properties": { "id": null, "name": "莊氏順治", "address": "白金1-11", "type": 6, "sort2": "冰, 飲料" }, "geometry": { "type": "Point", "coordinates": [ 120.203289728606237, 22.992935570650801 ] } },
{ "type": "Feature", "properties": { "id": null, "name": "葛西表具店 葛西憲明", "address": "白金1-31", "type": 6, "sort2": "表具" }, "geometry": { "type": "Point", "coordinates": [ 120.202664364008172, 22.992223301139731 ] } },
{ "type": "Feature", "properties": { "id": null, "name": "木下疊店 木下清助", "address": "白金1-39", "type": 6, "sort2": "疊蓆" }, "geometry": { "type": "Point", "coordinates": [ 120.202713581982451, 22.992520520260669 ] } },
{ "type": "Feature", "properties": { "id": null, "name": "賜成洋家具店", "address": "白金1-48", "type": 6, "sort2": "家具" }, "geometry": { "type": "Point", "coordinates": [ 120.202694800938573, 22.992783398092087 ] } },
{ "type": "Feature", "properties": { "id": null, "name": "振合成商店", "address": "白金1-6", "type": 6, "sort2": "米" }, "geometry": { "type": "Point", "coordinates": [ 120.203259026761884, 22.993186593015754 ] } },
{ "type": "Feature", "properties": { "id": null, "name": "マルベニパン店 鳥居伊作", "address": "白金1-60", "type": 6, "sort2": "菓子" }, "geometry": { "type": "Point", "coordinates": [ 120.202829589633453, 22.993058150468752 ] } },
{ "type": "Feature", "properties": { "id": null, "name": "津田銅砲火藥販賣部 津田松茂", "address": "白金2-14, 15", "type": 6, "sort2": "銃砲" }, "geometry": { "type": "Point", "coordinates": [ 120.203502355580881, 22.994378477663759 ] } },
{ "type": "Feature", "properties": { "id": null, "name": "泉文具店 泉義一", "address": "白金2-18", "type": 6, "sort2": "紙, 文具" }, "geometry": { "type": "Point", "coordinates": [ 120.2034730330342, 22.994266619030025 ] } },
{ "type": "Feature", "properties": { "id": null, "name": "加藤時計店 加來新", "address": "白金2-19", "type": 6, "sort2": "時計, 金銀細工" }, "geometry": { "type": "Point", "coordinates": [ 120.203466463043696, 22.994236750084685 ] } },
{ "type": "Feature", "properties": { "id": null, "name": "ムサシヤ帽子店 前野友雄", "address": "白金2-21", "type": 6, "sort2": "帽子" }, "geometry": { "type": "Point", "coordinates": [ 120.203445152438249, 22.994164481658455 ] } },
{ "type": "Feature", "properties": { "id": null, "name": "黃順成商店 黃爾昭", "address": "白金2-36", "type": 6, "sort2": "砂糖" }, "geometry": { "type": "Point", "coordinates": [ 120.203361759203275, 22.993815745398848 ] } },
{ "type": "Feature", "properties": { "id": null, "name": "いろは堂文房具店 上野販弌", "address": "白金2-37", "type": 6, "sort2": "紙, 文具" }, "geometry": { "type": "Point", "coordinates": [ 120.203347071575536, 22.993764326015764 ] } },
{ "type": "Feature", "properties": { "id": null, "name": "精工堂時計店 清水三郎", "address": "白金2-50", "type": 6, "sort2": "時計, 金銀細工" }, "geometry": { "type": "Point", "coordinates": [ 120.203286749006779, 22.993571130014843 ] } },
{ "type": "Feature", "properties": { "id": null, "name": "西陶器店", "address": "白金2-51", "type": 6, "sort2": "陶器" }, "geometry": { "type": "Point", "coordinates": [ 120.203277991827235, 22.993530842184715 ] } },
{ "type": "Feature", "properties": { "id": null, "name": "魚虎 山田虎一", "address": "白金2-53", "type": 6, "sort2": "生魚" }, "geometry": { "type": "Point", "coordinates": [ 120.20326698225665, 22.993491236884715 ] } },
{ "type": "Feature", "properties": { "id": null, "name": "木村屋商店", "address": "白金2-55", "type": 6, "sort2": "米" }, "geometry": { "type": "Point", "coordinates": [ 120.202940849032998, 22.993894115789143 ] } },
{ "type": "Feature", "properties": { "id": null, "name": "史精堂印刷所, 建鳳蕃產物店 張建智", "address": "白金2-6", "type": 6, "sort2": "印刷, 物品販賣" }, "geometry": { "type": "Point", "coordinates": [ 120.203570707003109, 22.994608488437759 ] } },
{ "type": "Feature", "properties": { "id": null, "name": "道安堂藥房 許奢", "address": "白金2-66", "type": 6, "sort2": "藥種, 賣藥" }, "geometry": { "type": "Point", "coordinates": [ 120.203098717489866, 22.994323020611642 ] } },
{ "type": "Feature", "properties": { "id": null, "name": "トモエ電氣商會", "address": "白金2-60", "type": 6, "sort2": "電機" }, "geometry": { "type": "Point", "coordinates": [ 120.203051549524901, 22.994107253580253 ] } },
{ "type": "Feature", "properties": { "id": null, "name": "藤岡商行 藤岡頭正", "address": "白金2-69", "type": 6, "sort2": "用達" }, "geometry": { "type": "Point", "coordinates": [ 120.203111407747457, 22.994379547171228 ] } },
{ "type": "Feature", "properties": { "id": null, "name": "三輪養元堂 三輪良", "address": "白金3-104", "type": 6, "sort2": "藥種, 賣藥" }, "geometry": { "type": "Point", "coordinates": [ 120.203857077307333, 22.995410900665092 ] } },
{ "type": "Feature", "properties": { "id": null, "name": "新杵支店 梅園", "address": "白金3-110", "type": 6, "sort2": "菓子" }, "geometry": { "type": "Point", "coordinates": [ 120.203810679632483, 22.995271201945361 ] } },
{ "type": "Feature", "properties": { "id": null, "name": "興昌蚊帳工場 薛壬癸", "address": "白金3-111", "type": 6, "sort2": "蚊帳" }, "geometry": { "type": "Point", "coordinates": [ 120.203752588628134, 22.995208462713293 ] } },
{ "type": "Feature", "properties": { "id": null, "name": "興昌商行 薛壬癸", "address": "白金3-115", "type": 6, "sort2": "蚊帳" }, "geometry": { "type": "Point", "coordinates": [ 120.203686000727018, 22.995061030029888 ] } },
{ "type": "Feature", "properties": { "id": null, "name": "信昌金物店", "address": "白金3-119", "type": 6, "sort2": "機械, 金物" }, "geometry": { "type": "Point", "coordinates": [ 120.203653448140045, 22.994988705121479 ] } },
{ "type": "Feature", "properties": { "id": null, "name": "尾張屋商店 山內小田次郎", "address": "白金3-137", "type": 6, "sort2": "吳服, 化粧品" }, "geometry": { "type": "Point", "coordinates": [ 120.203400185422893, 22.995745125012558 ] } },
{ "type": "Feature", "properties": { "id": null, "name": "シンガー裁縫機械會社第一臺南分店", "address": "白金3-142", "type": 6, "sort2": "ミシン (縫紉機)" }, "geometry": { "type": "Point", "coordinates": [ 120.203556654445762, 22.995774359969783 ] } },
{ "type": "Feature", "properties": { "id": null, "name": "ズボラヤ履物店 武市安太", "address": "白金3-149", "type": 6, "sort2": "草鞋" }, "geometry": { "type": "Point", "coordinates": [ 120.203619271412492, 22.995959934940629 ] } },
{ "type": "Feature", "properties": { "id": null, "name": "丸福", "address": "白金3-166", "type": 6, "sort2": "食料, 雜貨" }, "geometry": { "type": "Point", "coordinates": [ 120.203752399195423, 22.996263126378064 ] } },
{ "type": "Feature", "properties": { "id": null, "name": "池田屋商店", "address": "白金3-85", "type": 6, "sort2": "菓子" }, "geometry": { "type": "Point", "coordinates": [ 120.204008546901079, 22.995781488348118 ] } },
{ "type": "Feature", "properties": { "id": null, "name": "小野電氣商會 小野卓雄", "address": "白金3-93", "type": 6, "sort2": "電機" }, "geometry": { "type": "Point", "coordinates": [ 120.203965802658303, 22.995657766773487 ] } },
{ "type": "Feature", "properties": { "id": null, "name": "三榮商會 吳榮華", "address": "白金4-2", "type": 6, "sort2": "地金銀" }, "geometry": { "type": "Point", "coordinates": [ 120.204547729648951, 22.997135832814426 ] } },
{ "type": "Feature", "properties": { "id": null, "name": "龍記商行 謝水龍", "address": "白金4-44,45", "type": 6, "sort2": "足袋" }, "geometry": { "type": "Point", "coordinates": [ 120.203956274002394, 22.996558824760502 ] } },
{ "type": "Feature", "properties": { "id": null, "name": "水口商店 水口信一", "address": "白金4-46", "type": 6, "sort2": "機械" }, "geometry": { "type": "Point", "coordinates": [ 120.203979830006261, 22.996607222375815 ] } },
{ "type": "Feature", "properties": { "id": null, "name": "臺灣弘仁株式會社", "address": "白金4-57", "type": 6, "sort2": "葬儀請負" }, "geometry": { "type": "Point", "coordinates": [ 120.204044384688459, 22.996778593212252 ] } },
{ "type": "Feature", "properties": { "id": null, "name": "明石鐵工所 明石正一", "address": "白金4-66", "type": 6, "sort2": "鐵工" }, "geometry": { "type": "Point", "coordinates": [ 120.204046753822453, 22.997391061718101 ] } },
{ "type": "Feature", "properties": { "id": null, "name": "梁添丁商店", "address": "白金5-48", "type": 6, "sort2": "硝子" }, "geometry": { "type": "Point", "coordinates": [ 120.204345115881253, 22.997329107981393 ] } },
{ "type": "Feature", "properties": { "id": null, "name": "藤井水生", "address": "白金5-55", "type": 6, "sort2": "疊蓆" }, "geometry": { "type": "Point", "coordinates": [ 120.204438961142984, 22.99758752841343 ] } },
{ "type": "Feature", "properties": { "id": null, "name": "一二軒商會 彭權", "address": "白金5-56", "type": 6, "sort2": "菓子" }, "geometry": { "type": "Point", "coordinates": [ 120.204474477532202, 22.997629088994081 ] } },
{ "type": "Feature", "properties": { "id": null, "name": "正錦昌", "address": "白金5-8", "type": 6, "sort2": null }, "geometry": { "type": "Point", "coordinates": [ 120.204941454115811, 22.998034220397876 ] } },
{ "type": "Feature", "properties": { "id": null, "name": "臺灣製鹽株式會社", "address": "安平1000-1", "type": 6, "sort2": "鹽" }, "geometry": { "type": "Point", "coordinates": [ 120.154266738642761, 23.001447636982011 ] } },
{ "type": "Feature", "properties": { "id": null, "name": "臺灣製鹽株式會社 安順出張所", "address": "安順媽祖宮", "type": 6, "sort2": "鹽" }, "geometry": { "type": "Point", "coordinates": [ 120.143223159379943, 23.026074033367959 ] } },
{ "type": "Feature", "properties": { "id": null, "name": "傳益商行 陳處", "address": "西門1-109", "type": 6, "sort2": "材木" }, "geometry": { "type": "Point", "coordinates": [ 120.200458191093503, 22.998535439089999 ] } },
{ "type": "Feature", "properties": { "id": null, "name": "蔡祥 臺南大舞台", "address": "西門1-46", "type": 6, "sort2": "活動, 劇場" }, "geometry": { "type": "Point", "coordinates": [ 120.201095796553773, 22.998808560051121 ] } },
{ "type": "Feature", "properties": { "id": null, "name": "瑞益商店臺南支店 蔡酉, 保生堂藥房 林長振, 順泰材木商行", "address": "西門1-66", "type": 6, "sort2": "石油, 藥種, 材木" }, "geometry": { "type": "Point", "coordinates": [ 120.200801078592818, 22.998588207561859 ] } },
{ "type": "Feature", "properties": { "id": null, "name": "永豐商行台南支店 西門出張所", "address": "西門1-69", "type": 6, "sort2": "肥料" }, "geometry": { "type": "Point", "coordinates": [ 120.201146504680096, 22.999138033980227 ] } },
{ "type": "Feature", "properties": { "id": null, "name": "裕發公司 謝恒懋", "address": "西門1-70", "type": 6, "sort2": "肥料" }, "geometry": { "type": "Point", "coordinates": [ 120.201176038903824, 22.999183243522491 ] } },
{ "type": "Feature", "properties": { "id": null, "name": "共和商店 潘元和", "address": "西門1-71", "type": 6, "sort2": "肥料" }, "geometry": { "type": "Point", "coordinates": [ 120.201219284734719, 22.999261627946808 ] } },
{ "type": "Feature", "properties": { "id": null, "name": "共榮社 黃祖灼", "address": "西門1-75", "type": 6, "sort2": "肥料, 雜穀" }, "geometry": { "type": "Point", "coordinates": [ 120.201332541937916, 22.99942772776518 ] } },
{ "type": "Feature", "properties": { "id": null, "name": "清田商行", "address": "西門1-76-1", "type": 6, "sort2": "海產物" }, "geometry": { "type": "Point", "coordinates": [ 120.201100269069613, 22.999736462840847 ] } },
{ "type": "Feature", "properties": { "id": null, "name": "永和商行 商霖, 金成吉木炭店 許却", "address": "西門1-81", "type": 6, "sort2": "砂糖, 薪炭" }, "geometry": { "type": "Point", "coordinates": [ 120.201012229097913, 22.999505198206791 ] } },
{ "type": "Feature", "properties": { "id": null, "name": "大益商行西門支店 陳燕", "address": "西門1-82", "type": 6, "sort2": "海產物" }, "geometry": { "type": "Point", "coordinates": [ 120.200857526350433, 22.999461196361569 ] } },
{ "type": "Feature", "properties": { "id": null, "name": "捷榮合資會社", "address": "西門2-116", "type": 6, "sort2": "肥料" }, "geometry": { "type": "Point", "coordinates": [ 120.19924218387871, 22.997805108390772 ] } },
{ "type": "Feature", "properties": { "id": null, "name": "永玉成商店 張勇", "address": "西門2-213", "type": 6, "sort2": "冰, カラスミ" }, "geometry": { "type": "Point", "coordinates": [ 120.200067271085047, 22.996772424003709 ] } },
{ "type": "Feature", "properties": { "id": null, "name": "三泰商會 劉過三", "address": "西門2-230", "type": 3, "sort2": "運送" }, "geometry": { "type": "Point", "coordinates": [ 120.199638283912591, 22.997087520370208 ] } },
{ "type": "Feature", "properties": { "id": null, "name": "崑玉鐵工場", "address": "西門2-231", "type": 6, "sort2": "鐵工" }, "geometry": { "type": "Point", "coordinates": [ 120.199591501352103, 22.997103836851746 ] } },
{ "type": "Feature", "properties": { "id": null, "name": "臺南タクシー株式會社", "address": "西門2-24, 壽1-38, 壽1-2-1", "type": 3, "sort2": "自動車 (汽車)" }, "geometry": { "type": "Point", "coordinates": [ 120.200728277082931, 22.997709158719232 ] } },
{ "type": "Feature", "properties": { "id": null, "name": "安東商店, 同源公司 徐守益", "address": "西門2-44", "type": 6, "sort2": "砂糖, 材木" }, "geometry": { "type": "Point", "coordinates": [ 120.200487196177022, 22.997995778059448 ] } },
{ "type": "Feature", "properties": { "id": null, "name": "建昌商行 洪西淮", "address": "西門2-59", "type": 6, "sort2": "砂糖" }, "geometry": { "type": "Point", "coordinates": [ 120.200656203528652, 22.998309296350232 ] } },
{ "type": "Feature", "properties": { "id": null, "name": "清海商行 吳清海", "address": "西門2-9", "type": 6, "sort2": "海產物" }, "geometry": { "type": "Point", "coordinates": [ 120.201012012596408, 22.997938651963004 ] } },
{ "type": "Feature", "properties": { "id": null, "name": "共和 吳珍", "address": "西門3-22", "type": 6, "sort2": "材木" }, "geometry": { "type": "Point", "coordinates": [ 120.19958943111817, 22.99678104544795 ] } },
{ "type": "Feature", "properties": { "id": null, "name": "永發商行 郭壽德", "address": "西門3-26", "type": 6, "sort2": "海產物" }, "geometry": { "type": "Point", "coordinates": [ 120.199401232002558, 22.99685918029444 ] } },
{ "type": "Feature", "properties": { "id": null, "name": "延壽堂 張池", "address": "西門3-27", "type": 6, "sort2": "藥種, 賣藥" }, "geometry": { "type": "Point", "coordinates": [ 120.199230004052652, 22.996586112058964 ] } },
{ "type": "Feature", "properties": { "id": null, "name": "吉祥商店 邱再吉", "address": "西門3-31", "type": 6, "sort2": "和洋雜貨" }, "geometry": { "type": "Point", "coordinates": [ 120.199405138232962, 22.996533660283347 ] } },
{ "type": "Feature", "properties": { "id": null, "name": "利益公司", "address": "西門3-52", "type": 6, "sort2": "油類" }, "geometry": { "type": "Point", "coordinates": [ 120.19921171112891, 22.996319334474563 ] } },
{ "type": "Feature", "properties": { "id": null, "name": "和美商行 郭松桔", "address": "西門3-61", "type": 6, "sort2": "山產物" }, "geometry": { "type": "Point", "coordinates": [ 120.199168590767471, 22.995883224254879 ] } },
{ "type": "Feature", "properties": { "id": null, "name": "三和公司 郭炳輝, 盧世澤 台南信用組合長", "address": "西門3-63", "type": 6, "sort2": "海陸物產部屋, 住宅" }, "geometry": { "type": "Point", "coordinates": [ 120.199262068344837, 22.995865304725307 ] } },
{ "type": "Feature", "properties": { "id": null, "name": "共興商店 劉施火", "address": "西門3-64", "type": 6, "sort2": "海產物" }, "geometry": { "type": "Point", "coordinates": [ 120.199309800413147, 22.995856349960235 ] } },
{ "type": "Feature", "properties": { "id": null, "name": "益興商店 吳進", "address": "西門3-66", "type": 6, "sort2": "山產物" }, "geometry": { "type": "Point", "coordinates": [ 120.199410247240067, 22.995835706757124 ] } },
{ "type": "Feature", "properties": { "id": null, "name": "永玉珍商店 張九", "address": "西門3-87", "type": 6, "sort2": "烏魚子" }, "geometry": { "type": "Point", "coordinates": [ 120.199094285135004, 22.994671730199961 ] } },
{ "type": "Feature", "properties": { "id": null, "name": "森下寫真館 森下芳藏", "address": "西門4-111", "type": 6, "sort2": "寫真館" }, "geometry": { "type": "Point", "coordinates": [ 120.199669416911703, 22.993491106327841 ] } },
{ "type": "Feature", "properties": { "id": null, "name": "宮古座", "address": "西門4-117", "type": 6, "sort2": "活動, 劇場" }, "geometry": { "type": "Point", "coordinates": [ 120.19901042205943, 22.993396734951023 ] } },
{ "type": "Feature", "properties": { "id": null, "name": "臺南市青果荷受組合", "address": "西門4-142", "type": 6, "sort2": "果物, 青物" }, "geometry": { "type": "Point", "coordinates": [ 120.198170505199457, 22.993831137140191 ] } },
{ "type": "Feature", "properties": { "id": null, "name": "五福商店 楊添賜, 平田洋服店 平田真次郎", "address": "西門4-27", "type": 6, "sort2": "和洋雜貨\/吳服" }, "geometry": { "type": "Point", "coordinates": [ 120.199832077685841, 22.992689113440107 ] } },
{ "type": "Feature", "properties": { "id": null, "name": "文開堂紙店 橋本宰次郎", "address": "西門4-29", "type": 6, "sort2": "紙, 文具" }, "geometry": { "type": "Point", "coordinates": [ 120.199736274419351, 22.99276495669023 ] } },
{ "type": "Feature", "properties": { "id": null, "name": "永義興 楊豬屎", "address": "西門4-30", "type": 6, "sort2": "砂糖" }, "geometry": { "type": "Point", "coordinates": [ 120.199723714233116, 22.992705118962249 ] } },
{ "type": "Feature", "properties": { "id": null, "name": "牧美粧院 木戶マキ", "address": "西門4-75", "type": 6, "sort2": "理髮, 結髮" }, "geometry": { "type": "Point", "coordinates": [ 120.19923095530136, 22.992382606760156 ] } },
{ "type": "Feature", "properties": { "id": null, "name": "木戶牧 美粧院", "address": "西門4-76", "type": 6, "sort2": "理髮, 結髮" }, "geometry": { "type": "Point", "coordinates": [ 120.198796928192138, 22.992279335991391 ] } },
{ "type": "Feature", "properties": { "id": null, "name": "白蟻驅除研究所台灣支部臺南出張所 藤崎健彥", "address": "西門4-88", "type": 6, "sort2": "白蟻驅除" }, "geometry": { "type": "Point", "coordinates": [ 120.199105036460253, 22.992850381620567 ] } },
{ "type": "Feature", "properties": { "id": null, "name": "山本洋服店 中村保雄", "address": "西門4-89", "type": 6, "sort2": "洋服" }, "geometry": { "type": "Point", "coordinates": [ 120.199118086473177, 22.992885029609972 ] } },
{ "type": "Feature", "properties": { "id": null, "name": "新錦豐精米所", "address": "西門4-95", "type": 6, "sort2": "米" }, "geometry": { "type": "Point", "coordinates": [ 120.198912370480727, 22.993033473069289 ] } },
{ "type": "Feature", "properties": { "id": null, "name": "合德商會", "address": "西門5-103", "type": 6, "sort2": "紅瓦製造" }, "geometry": { "type": "Point", "coordinates": [ 120.198234397617696, 22.992147644250615 ] } },
{ "type": "Feature", "properties": { "id": null, "name": "大江貸物自動車商會", "address": "西門5-106", "type": 3, "sort2": "自動車 (汽車)" }, "geometry": { "type": "Point", "coordinates": [ 120.19818589251075, 22.991995684123889 ] } },
{ "type": "Feature", "properties": { "id": null, "name": "吳合發材木商行 吳採煌", "address": "西門5-68", "type": 6, "sort2": "材木" }, "geometry": { "type": "Point", "coordinates": [ 120.198174557124361, 22.990854420170404 ] } },
{ "type": "Feature", "properties": { "id": null, "name": "乾博愛堂藥房", "address": "花園1-35", "type": 6, "sort2": "藥種, 賣藥" }, "geometry": { "type": "Point", "coordinates": [ 120.205211835591811, 22.994149921184217 ] } },
{ "type": "Feature", "properties": { "id": null, "name": "丸三商會 合名會社代表社源村田春, 丸石モーター商會 石連灯", "address": "花園2-11", "type": 6, "sort2": "味噌, 醬油\/自動車 (汽車)" }, "geometry": { "type": "Point", "coordinates": [ 120.205988217293523, 22.995650055985042 ] } },
{ "type": "Feature", "properties": { "id": null, "name": "臺南偕同製棉所", "address": "花園2-122", "type": 6, "sort2": null }, "geometry": { "type": "Point", "coordinates": [ 120.205584805305293, 22.996031821064097 ] } },
{ "type": "Feature", "properties": { "id": null, "name": "臺灣製菓株式會社", "address": "花園2-190", "type": 6, "sort2": "菓子" }, "geometry": { "type": "Point", "coordinates": [ 120.205418023171291, 22.996457218745782 ] } },
{ "type": "Feature", "properties": { "id": null, "name": "南國自動車商會 葉作, 開南商會, 三泰商行 鄭根", "address": "花園2-2", "type": 6, "sort2": "自動車\/薪炭\/肥料" }, "geometry": { "type": "Point", "coordinates": [ 120.20686274758819, 22.997193567284093 ] } },
{ "type": "Feature", "properties": { "id": null, "name": "臺南カネタツ株式會社 川崎二三", "address": "花園2-21", "type": 6, "sort2": "內外商品買賣" }, "geometry": { "type": "Point", "coordinates": [ 120.206876049911699, 22.995652292914205 ] } },
{ "type": "Feature", "properties": { "id": null, "name": "四海商店", "address": "花園2-56", "type": 3, "sort2": "自轉車 (腳踏車)" }, "geometry": { "type": "Point", "coordinates": [ 120.205290691519764, 22.994548695504697 ] } },
{ "type": "Feature", "properties": { "id": null, "name": "新化軌道株式會社臺南發著所", "address": "花園3-15", "type": 3, "sort2": "停車場" }, "geometry": { "type": "Point", "coordinates": [ 120.208319745144394, 23.000966993664544 ] } },
{ "type": "Feature", "properties": { "id": null, "name": "臺南砂利公司 周吉", "address": "花園3-4", "type": 6, "sort2": "砂利, 川砂" }, "geometry": { "type": "Point", "coordinates": [ 120.208030793845126, 23.001130029441725 ] } },
{ "type": "Feature", "properties": { "id": null, "name": "北南幌製作所 林廷玉", "address": "花園3-60", "type": 3, "sort2": "自動車 (汽車)" }, "geometry": { "type": "Point", "coordinates": [ 120.207729946037091, 22.999648864492698 ] } },
{ "type": "Feature", "properties": { "id": null, "name": "新化軌道自動車部", "address": "花園3-61-2", "type": 3, "sort2": "自動車 (汽車)" }, "geometry": { "type": "Point", "coordinates": [ 120.207649996815164, 22.999599385729631 ] } },
{ "type": "Feature", "properties": { "id": null, "name": "楠本半", "address": "花園3-7", "type": 6, "sort2": "土木建築" }, "geometry": { "type": "Point", "coordinates": [ 120.208231033234284, 23.001191384289477 ] } },
{ "type": "Feature", "properties": { "id": null, "name": "佐藤商店 佐藤由松", "address": "花園3-71-1", "type": 6, "sort2": "酒類賣捌" }, "geometry": { "type": "Point", "coordinates": [ 120.207990587151201, 22.999425997136616 ] } },
{ "type": "Feature", "properties": { "id": null, "name": "豐源商店", "address": "南門1-62", "type": 6, "sort2": "食料品, 問屋" }, "geometry": { "type": "Point", "coordinates": [ 120.202717726769805, 22.98919247449281 ] } },
{ "type": "Feature", "properties": { "id": null, "name": "臺灣電力株式會社臺南出張所 臺南出張所, 所長社宅", "address": "南門2", "type": 9, "sort2": "電氣 ,住宅" }, "geometry": { "type": "Point", "coordinates": [ 120.200946227352588, 22.987845157187095 ] } },
{ "type": "Feature", "properties": { "id": null, "name": "臺灣電力株式會社臺南營業所台南變電所", "address": "南門2-51", "type": 9, "sort2": "電氣" }, "geometry": { "type": "Point", "coordinates": [ 120.200542180115107, 22.987849751372874 ] } },
{ "type": "Feature", "properties": { "id": null, "name": "李壽山", "address": "南門3-24", "type": 6, "sort2": "土木建築" }, "geometry": { "type": "Point", "coordinates": [ 120.199685375058976, 22.990290082303702 ] } },
{ "type": "Feature", "properties": { "id": null, "name": "德豐漁業公司 林潑", "address": "南門3-58", "type": 6, "sort2": "生魚" }, "geometry": { "type": "Point", "coordinates": [ 120.198758479635643, 22.990520180004193 ] } },
{ "type": "Feature", "properties": { "id": null, "name": "林德昌行 林闖", "address": "泉102", "type": 6, "sort2": "桐油販賣" }, "geometry": { "type": "Point", "coordinates": [ 120.19781876659296, 22.989146897838133 ] } },
{ "type": "Feature", "properties": { "id": null, "name": "玉南商店 江再", "address": "泉103-1", "type": 6, "sort2": "白米" }, "geometry": { "type": "Point", "coordinates": [ 120.197821019714922, 22.988997380912458 ] } },
{ "type": "Feature", "properties": { "id": null, "name": "文藝社 廖繼春", "address": "高砂1-104", "type": 6, "sort2": "紙, 文具" }, "geometry": { "type": "Point", "coordinates": [ 120.207221685406637, 22.992354237585381 ] } },
{ "type": "Feature", "properties": { "id": null, "name": "共益社教育品商店", "address": "高砂1-108", "type": 6, "sort2": "化學工藝標本" }, "geometry": { "type": "Point", "coordinates": [ 120.207141309926328, 22.992504911585204 ] } },
{ "type": "Feature", "properties": { "id": null, "name": "愛知製帽所 恒川榮太郎", "address": "高砂1-116", "type": 6, "sort2": "帽子" }, "geometry": { "type": "Point", "coordinates": [ 120.207036968869289, 22.992738884584963 ] } },
{ "type": "Feature", "properties": { "id": null, "name": "入三商會 張枝", "address": "高砂1-2", "type": 6, "sort2": "薪炭" }, "geometry": { "type": "Point", "coordinates": [ 120.20778621872158, 22.993484926779278 ] } },
{ "type": "Feature", "properties": { "id": null, "name": "小谷希望寫真館 小谷文一", "address": "高砂1-47", "type": 6, "sort2": "寫真館" }, "geometry": { "type": "Point", "coordinates": [ 120.207283746463787, 22.99327622456142 ] } },
{ "type": "Feature", "properties": { "id": null, "name": "陳寫真館 陳福氣", "address": "高砂1-64", "type": 6, "sort2": "寫真館" }, "geometry": { "type": "Point", "coordinates": [ 120.207443975100247, 22.992980084423333 ] } },
{ "type": "Feature", "properties": { "id": null, "name": "新同發米商店 黃銘鐘", "address": "高砂1-83", "type": 6, "sort2": "米" }, "geometry": { "type": "Point", "coordinates": [ 120.20778947855446, 22.992689379190143 ] } },
{ "type": "Feature", "properties": { "id": null, "name": "河洛軒 游振聰", "address": "高砂1-91", "type": 6, "sort2": "印刻" }, "geometry": { "type": "Point", "coordinates": [ 120.207698999063609, 22.992340149958803 ] } },
{ "type": "Feature", "properties": { "id": null, "name": "連成米店 蔡水龍", "address": "高砂1-92", "type": 6, "sort2": "冰, 飲料" }, "geometry": { "type": "Point", "coordinates": [ 120.207750573213602, 22.992320948930061 ] } },
{ "type": "Feature", "properties": { "id": null, "name": "德利商行 陳金龍", "address": "高砂1-94", "type": 6, "sort2": "青果, 藥種" }, "geometry": { "type": "Point", "coordinates": [ 120.207801992865342, 22.992225566223894 ] } },
{ "type": "Feature", "properties": { "id": null, "name": "新四海樓 徐木森", "address": "高砂1-97", "type": 6, "sort2": "台灣料理" }, "geometry": { "type": "Point", "coordinates": [ 120.207452383751132, 22.992140329266277 ] } },
{ "type": "Feature", "properties": { "id": null, "name": "安仁堂藥房 方清溪", "address": "高砂2-106", "type": 6, "sort2": "藥種, 賣藥" }, "geometry": { "type": "Point", "coordinates": [ 120.208295262675023, 22.990865457691147 ] } },
{ "type": "Feature", "properties": { "id": null, "name": "義益商店 葉田", "address": "高砂2-11", "type": 6, "sort2": "糖粉, 雜貨" }, "geometry": { "type": "Point", "coordinates": [ 120.20900954904819, 22.990687899997731 ] } },
{ "type": "Feature", "properties": { "id": null, "name": "大益商店 陳宜", "address": "高砂2-139", "type": 6, "sort2": "米" }, "geometry": { "type": "Point", "coordinates": [ 120.20879879076837, 22.990286299576177 ] } },
{ "type": "Feature", "properties": { "id": null, "name": "三省堂藥房 佐野壽三郎", "address": "高砂2-15", "type": 6, "sort2": "藥種, 賣藥" }, "geometry": { "type": "Point", "coordinates": [ 120.208894357982118, 22.990796838678293 ] } },
{ "type": "Feature", "properties": { "id": null, "name": "瑞興美雜貨店", "address": "高砂2-18", "type": 6, "sort2": "食料, 雜貨" }, "geometry": { "type": "Point", "coordinates": [ 120.208791606116733, 22.990859570569661 ] } },
{ "type": "Feature", "properties": { "id": null, "name": "劉清峯醫院 劉清風", "address": "高砂2-27", "type": 6, "sort2": "醫院, 醫師" }, "geometry": { "type": "Point", "coordinates": [ 120.208599340100847, 22.991072190780752 ] } },
{ "type": "Feature", "properties": { "id": null, "name": "長茂 黃爾欣", "address": "高砂2-53", "type": 6, "sort2": "白米" }, "geometry": { "type": "Point", "coordinates": [ 120.20806497393761, 22.991718297315963 ] } },
{ "type": "Feature", "properties": { "id": null, "name": "中島愛壽堂", "address": "高砂2-71", "type": 6, "sort2": "鹽糖, 藥種" }, "geometry": { "type": "Point", "coordinates": [ 120.20772293652216, 22.99179786832125 ] } },
{ "type": "Feature", "properties": { "id": null, "name": "麟記商行 黃必麟", "address": "高砂2-88", "type": 6, "sort2": "食料, 雜貨" }, "geometry": { "type": "Point", "coordinates": [ 120.207820352957683, 22.991336107289722 ] } },
{ "type": "Feature", "properties": { "id": null, "name": "宗海組 林必昌", "address": "高砂3-114", "type": 6, "sort2": "土木建築" }, "geometry": { "type": "Point", "coordinates": [ 120.20970925067526, 22.989800587755479 ] } },
{ "type": "Feature", "properties": { "id": null, "name": "許廷光", "address": "高砂3-121", "type": 6, "sort2": "阿片賣捌" }, "geometry": { "type": "Point", "coordinates": [ 120.20988522574153, 22.989729052196601 ] } },
{ "type": "Feature", "properties": { "id": null, "name": "百田商店 百田勝三", "address": "高砂3-164", "type": 6, "sort2": "機械, 金物" }, "geometry": { "type": "Point", "coordinates": [ 120.210005027206591, 22.988902820063398 ] } },
{ "type": "Feature", "properties": { "id": null, "name": "永興記 曾海戾", "address": "高砂3-24", "type": 6, "sort2": "肥料" }, "geometry": { "type": "Point", "coordinates": [ 120.210259919480762, 22.989712695476705 ] } },
{ "type": "Feature", "properties": { "id": null, "name": "呂源", "address": "高砂3-30", "type": 6, "sort2": "牛乳" }, "geometry": { "type": "Point", "coordinates": [ 120.210407715754357, 22.99031768376139 ] } },
{ "type": "Feature", "properties": { "id": null, "name": "協裕商店 城文?", "address": "高砂3-80", "type": 6, "sort2": "米" }, "geometry": { "type": "Point", "coordinates": [ 120.209318904149711, 22.990849122068923 ] } },
{ "type": "Feature", "properties": { "id": null, "name": "雜賀常吉", "address": "壽1-15", "type": 3, "sort2": "人力車製造" }, "geometry": { "type": "Point", "coordinates": [ 120.21035875567803, 22.992743497705998 ] } },
{ "type": "Feature", "properties": { "id": null, "name": "臺灣運輸株式會社臺南支店 驛前陸送部", "address": "壽1-2", "type": 3, "sort2": "運送" }, "geometry": { "type": "Point", "coordinates": [ 120.212083037992201, 22.996000756567724 ] } },
{ "type": "Feature", "properties": { "id": null, "name": "臺南州米穀商同業組合臺南檢查所, 臺南木工商會 竹原勝太郎", "address": "壽1-4", "type": 6, "sort2": "米, 木工" }, "geometry": { "type": "Point", "coordinates": [ 120.211800120100179, 22.993701013768021 ] } },
{ "type": "Feature", "properties": { "id": null, "name": "東洋コンクリート工業株式會社臺南出張所", "address": "壽1-40", "type": 6, "sort2": "コンクリート" }, "geometry": { "type": "Point", "coordinates": [ 120.21175158356472, 22.995812599361514 ] } },
{ "type": "Feature", "properties": { "id": null, "name": "臺灣倉庫株式會社臺南出張所, 所長宿舍", "address": "壽1-41", "type": 3, "sort2": "倉庫" }, "geometry": { "type": "Point", "coordinates": [ 120.2116734544515, 22.996229367386302 ] } },
{ "type": "Feature", "properties": { "id": null, "name": "施順成 施盆", "address": "壽1-4-1", "type": 6, "sort2": "薪炭" }, "geometry": { "type": "Point", "coordinates": [ 120.211790401048077, 22.993960656661397 ] } },
{ "type": "Feature", "properties": { "id": null, "name": "江崎商店 江崎藤喜, 遠藤進商店 遠藤宇吉, 大五商行臺南支店 江崎藤喜", "address": "壽1-7", "type": 6, "sort2": "米\/?\/米" }, "geometry": { "type": "Point", "coordinates": [ 120.211200009392016, 22.992651180331663 ] } },
{ "type": "Feature", "properties": { "id": null, "name": "井料藤吉", "address": "壽2-28", "type": 6, "sort2": "土木建築" }, "geometry": { "type": "Point", "coordinates": [ 120.211742813965131, 22.991006654418118 ] } },
{ "type": "Feature", "properties": { "id": null, "name": "昭和製棉所", "address": "壽2-36", "type": 6, "sort2": "綿" }, "geometry": { "type": "Point", "coordinates": [ 120.211725891159006, 22.990512803677504 ] } },
{ "type": "Feature", "properties": { "id": null, "name": "王成傳土木建築請負所", "address": "壽2-49", "type": 6, "sort2": "土木建築" }, "geometry": { "type": "Point", "coordinates": [ 120.211681933840424, 22.990270923702663 ] } },
{ "type": "Feature", "properties": { "id": null, "name": "永豐商行台南支店", "address": "壽2-56", "type": 6, "sort2": "肥料" }, "geometry": { "type": "Point", "coordinates": [ 120.211295549416704, 22.989972053881026 ] } },
{ "type": "Feature", "properties": { "id": null, "name": "近藤國一", "address": "綠52", "type": 6, "sort2": "疊蓆" }, "geometry": { "type": "Point", "coordinates": [ 120.204802021572917, 22.989275666667243 ] } },
{ "type": "Feature", "properties": { "id": null, "name": "金願成商店", "address": "綠54", "type": 6, "sort2": "果物, 青物" }, "geometry": { "type": "Point", "coordinates": [ 120.204776452841131, 22.988938573735325 ] } },
{ "type": "Feature", "properties": { "id": null, "name": "新盛文印刷所", "address": "臺1-121", "type": 6, "sort2": "印刷" }, "geometry": { "type": "Point", "coordinates": [ 120.202979311639808, 22.996516361643923 ] } },
{ "type": "Feature", "properties": { "id": null, "name": "新瑞益精米所 張添", "address": "臺1-101", "type": 6, "sort2": "米" }, "geometry": { "type": "Point", "coordinates": [ 120.203420434343201, 22.99664816225842 ] } },
{ "type": "Feature", "properties": { "id": null, "name": "珍活自轉車商會 陳火炎", "address": "臺2-88", "type": 6, "sort2": "自轉車販賣" }, "geometry": { "type": "Point", "coordinates": [ 120.201368005949618, 22.99742198629394 ] } },
{ "type": "Feature", "properties": { "id": null, "name": "南隆米穀商 陳城", "address": "臺2-99", "type": 6, "sort2": "米" }, "geometry": { "type": "Point", "coordinates": [ 120.201181037288052, 22.997126006091069 ] } },
{ "type": "Feature", "properties": { "id": null, "name": "せとや糸店 妹尾虎市", "address": "錦1-101", "type": 6, "sort2": "糸類" }, "geometry": { "type": "Point", "coordinates": [ 120.204162153688699, 22.992933537166429 ] } },
{ "type": "Feature", "properties": { "id": null, "name": "樋口商店", "address": "錦1-102", "type": 6, "sort2": "武術道具" }, "geometry": { "type": "Point", "coordinates": [ 120.204241165968909, 22.99296460468868 ] } },
{ "type": "Feature", "properties": { "id": null, "name": "諏訪免作藏 工事場用", "address": "錦1-104", "type": 6, "sort2": "土木建築" }, "geometry": { "type": "Point", "coordinates": [ 120.204130714937747, 22.992759340652526 ] } },
{ "type": "Feature", "properties": { "id": null, "name": "嘉德商店 鄭葉", "address": "錦1-19", "type": 6, "sort2": "食料, 雜貨" }, "geometry": { "type": "Point", "coordinates": [ 120.204341983560241, 22.993109179564293 ] } },
{ "type": "Feature", "properties": { "id": null, "name": "朝日印刷所 張煌", "address": "錦1-20", "type": 6, "sort2": "印刷" }, "geometry": { "type": "Point", "coordinates": [ 120.204328589519392, 22.993146854964788 ] } },
{ "type": "Feature", "properties": { "id": null, "name": "桐骨董店", "address": "錦1-30", "type": 6, "sort2": "骨董" }, "geometry": { "type": "Point", "coordinates": [ 120.204206393485393, 22.99323259994279 ] } },
{ "type": "Feature", "properties": { "id": null, "name": "藤本長平", "address": "錦1-54", "type": 6, "sort2": "疊蓆" }, "geometry": { "type": "Point", "coordinates": [ 120.203729921923738, 22.993348523496909 ] } },
{ "type": "Feature", "properties": { "id": null, "name": "つるや樂器店", "address": "錦1-56", "type": 6, "sort2": "樂器, 蓄音器" }, "geometry": { "type": "Point", "coordinates": [ 120.203649059636277, 22.993370685164905 ] } },
{ "type": "Feature", "properties": { "id": null, "name": "松竹寫真館 陳喜生, 進文堂 陳宗坤", "address": "錦1-64", "type": 6, "sort2": "寫真館\/文具" }, "geometry": { "type": "Point", "coordinates": [ 120.203257434837155, 22.99340735533 ] } },
{ "type": "Feature", "properties": { "id": null, "name": "克己堂 梅原英勇", "address": "錦1-74", "type": 6, "sort2": "印刻" }, "geometry": { "type": "Point", "coordinates": [ 120.203539577801749, 22.993190580599087 ] } },
{ "type": "Feature", "properties": { "id": null, "name": "竹中學校用具店 竹中源作", "address": "錦1-77", "type": 6, "sort2": "紙, 文具" }, "geometry": { "type": "Point", "coordinates": [ 120.203716172313719, 22.993189600918932 ] } },
{ "type": "Feature", "properties": { "id": null, "name": "福島保正", "address": "錦1-78", "type": 6, "sort2": "藥種, 賣藥" }, "geometry": { "type": "Point", "coordinates": [ 120.203771954442757, 22.993182268010756 ] } },
{ "type": "Feature", "properties": { "id": null, "name": "甘本堂 陳本立, 清吉牛乳舍", "address": "錦1-79", "type": 6, "sort2": "菓子\/牛乳" }, "geometry": { "type": "Point", "coordinates": [ 120.203804508682154, 22.993171318151912 ] } },
{ "type": "Feature", "properties": { "id": null, "name": "河野製作所 河野信九", "address": "錦2-18", "type": 6, "sort2": "草鞋" }, "geometry": { "type": "Point", "coordinates": [ 120.202124918913682, 22.993774197915194 ] } },
{ "type": "Feature", "properties": { "id": null, "name": "吉岡ｷﾇ", "address": "錦2-34", "type": 6, "sort2": "理髮, 結髮" }, "geometry": { "type": "Point", "coordinates": [ 120.201778257608296, 22.993815543641801 ] } },
{ "type": "Feature", "properties": { "id": null, "name": "林藥局 林虎三", "address": "錦2-42", "type": 6, "sort2": "藥種, 賣藥" }, "geometry": { "type": "Point", "coordinates": [ 120.201302354056637, 22.993673463561194 ] } },
{ "type": "Feature", "properties": { "id": null, "name": "平戶支店 大塚勝次", "address": "錦2-48", "type": 6, "sort2": "漬物" }, "geometry": { "type": "Point", "coordinates": [ 120.201547338977804, 22.993591818891026 ] } },
{ "type": "Feature", "properties": { "id": null, "name": "清玩堂 市口義雄", "address": "錦2-59", "type": 6, "sort2": "表具" }, "geometry": { "type": "Point", "coordinates": [ 120.201824756371536, 22.993483035517503 ] } },
{ "type": "Feature", "properties": { "id": null, "name": "近江屋洋服店 中村太市", "address": "錦2-65", "type": 6, "sort2": "洋服" }, "geometry": { "type": "Point", "coordinates": [ 120.20195767498592, 22.993464546654806 ] } },
{ "type": "Feature", "properties": { "id": null, "name": "嘉興食料品店 蔡克勤", "address": "錦2-67", "type": 6, "sort2": "食料, 雜貨" }, "geometry": { "type": "Point", "coordinates": [ 120.202056648446217, 22.993444753681388 ] } },
{ "type": "Feature", "properties": { "id": null, "name": "三勇自轉車商會 徐寶掟", "address": "錦2-73", "type": 3, "sort2": "自轉車 (腳踏車)" }, "geometry": { "type": "Point", "coordinates": [ 120.202192645215376, 22.993352108976016 ] } },
{ "type": "Feature", "properties": { "id": null, "name": "臺灣日日新報社臺南支局", "address": "錦2-77", "type": 0, "sort2": "新聞, 雜誌" }, "geometry": { "type": "Point", "coordinates": [ 120.202347762263074, 22.993303982652929 ] } },
{ "type": "Feature", "properties": { "id": null, "name": "アガリ電氣商會 上利八十八", "address": "錦2-78", "type": 6, "sort2": "電機" }, "geometry": { "type": "Point", "coordinates": [ 120.202426731114386, 22.993283276505963 ] } },
{ "type": "Feature", "properties": { "id": null, "name": "丸井金物店", "address": "錦2-79", "type": 6, "sort2": "金物" }, "geometry": { "type": "Point", "coordinates": [ 120.20251073641073, 22.993264621659961 ] } },
{ "type": "Feature", "properties": { "id": null, "name": "紅葉軒 鳥居五月", "address": "錦2-89", "type": 6, "sort2": "菓子" }, "geometry": { "type": "Point", "coordinates": [ 120.202878830554511, 22.993218647794777 ] } },
{ "type": "Feature", "properties": { "id": null, "name": "遠藤福太郎商店", "address": "錦3-103", "type": 6, "sort2": "食料, 雜貨" }, "geometry": { "type": "Point", "coordinates": [ 120.19997848004931, 22.994336062187593 ] } },
{ "type": "Feature", "properties": { "id": null, "name": "竹吉商行 竹內鎰", "address": "錦3-118", "type": 6, "sort2": "家具" }, "geometry": { "type": "Point", "coordinates": [ 120.200645856149194, 22.99419856428926 ] } },
{ "type": "Feature", "properties": { "id": null, "name": "吉野屋商店臺南出張所", "address": "錦3-119", "type": 6, "sort2": "食料, 雜貨" }, "geometry": { "type": "Point", "coordinates": [ 120.200660660153474, 22.994129462633051 ] } },
{ "type": "Feature", "properties": { "id": null, "name": "木原愛善堂", "address": "錦3-132", "type": 6, "sort2": "寫真機及材料" }, "geometry": { "type": "Point", "coordinates": [ 120.201048620329146, 22.994077113812427 ] } },
{ "type": "Feature", "properties": { "id": null, "name": "橋本紙店 橋本壽一", "address": "錦3-137", "type": 6, "sort2": "紙, 文具" }, "geometry": { "type": "Point", "coordinates": [ 120.201123347492256, 22.993802851216653 ] } },
{ "type": "Feature", "properties": { "id": null, "name": "萬勢商店 一色二郎", "address": "錦3-138", "type": 6, "sort2": "草鞋" }, "geometry": { "type": "Point", "coordinates": [ 120.201085131812178, 22.993809268598834 ] } },
{ "type": "Feature", "properties": { "id": null, "name": "金富時計店 金富春雄", "address": "錦3-139", "type": 6, "sort2": "時計, 金銀細工" }, "geometry": { "type": "Point", "coordinates": [ 120.201045586336335, 22.993811526901133 ] } },
{ "type": "Feature", "properties": { "id": null, "name": "甘泉堂", "address": "錦3-142", "type": 6, "sort2": "菓子" }, "geometry": { "type": "Point", "coordinates": [ 120.200912930226067, 22.993853496299383 ] } },
{ "type": "Feature", "properties": { "id": null, "name": "藪井商店 藪井慶太郎", "address": "錦3-143", "type": 6, "sort2": "陶器" }, "geometry": { "type": "Point", "coordinates": [ 120.200855272292401, 22.99381860290686 ] } },
{ "type": "Feature", "properties": { "id": null, "name": "若松商店", "address": "錦3-17", "type": 6, "sort2": null }, "geometry": { "type": "Point", "coordinates": [ 120.200880467376507, 22.994568213829211 ] } },
{ "type": "Feature", "properties": { "id": null, "name": "白上靈泉堂", "address": "錦3-175", "type": 6, "sort2": "和洋雜貨" }, "geometry": { "type": "Point", "coordinates": [ 120.200480209259624, 22.993951335643821 ] } },
{ "type": "Feature", "properties": { "id": null, "name": "一六軒 田中政一郎", "address": "錦3-178", "type": 6, "sort2": "菓子" }, "geometry": { "type": "Point", "coordinates": [ 120.200394631870637, 22.993968236274238 ] } },
{ "type": "Feature", "properties": { "id": null, "name": "南天堂 陳天賜", "address": "錦3-179", "type": 6, "sort2": "手藝材料" }, "geometry": { "type": "Point", "coordinates": [ 120.20036145257437, 22.99397670488726 ] } },
{ "type": "Feature", "properties": { "id": null, "name": "泉州堂 吉井榮一", "address": "錦3-182", "type": 6, "sort2": "菓子" }, "geometry": { "type": "Point", "coordinates": [ 120.20030043284082, 22.994001381977917 ] } },
{ "type": "Feature", "properties": { "id": null, "name": "キクヤ 太田秀治", "address": "錦3-183", "type": 6, "sort2": "冰, 飲料" }, "geometry": { "type": "Point", "coordinates": [ 120.200269610660868, 22.994012480248607 ] } },
{ "type": "Feature", "properties": { "id": null, "name": "村上初太郎商店", "address": "錦3-188", "type": 6, "sort2": "食料, 雜貨" }, "geometry": { "type": "Point", "coordinates": [ 120.200174021049278, 22.994033372366399 ] } },
{ "type": "Feature", "properties": { "id": null, "name": "松本商店 松本滿作", "address": "錦3-189", "type": 6, "sort2": "綿布, 羅紗" }, "geometry": { "type": "Point", "coordinates": [ 120.200123375223598, 22.994033057003861 ] } },
{ "type": "Feature", "properties": { "id": null, "name": "慶豐年精米所 洪佑", "address": "錦3-206, 207", "type": 6, "sort2": "米" }, "geometry": { "type": "Point", "coordinates": [ 120.199912204672927, 22.993891112908202 ] } },
{ "type": "Feature", "properties": { "id": null, "name": "荒井商店台南營業所 荒井保", "address": "錦3-218", "type": 6, "sort2": "金屬器" }, "geometry": { "type": "Point", "coordinates": [ 120.199940417431876, 22.994132173204026 ] } },
{ "type": "Feature", "properties": { "id": null, "name": "回生堂藥房 孫金寬", "address": "錦3-219", "type": 6, "sort2": "藥種, 賣藥" }, "geometry": { "type": "Point", "coordinates": [ 120.199899663569568, 22.994146461002376 ] } },
{ "type": "Feature", "properties": { "id": null, "name": "山田門七", "address": "錦3-221", "type": 6, "sort2": "寫真館" }, "geometry": { "type": "Point", "coordinates": [ 120.199850468934955, 22.994166493494507 ] } },
{ "type": "Feature", "properties": { "id": null, "name": "中村藥房 中村知孝", "address": "錦3-227", "type": 6, "sort2": "藥種, 賣藥" }, "geometry": { "type": "Point", "coordinates": [ 120.199650103764725, 22.99423013613529 ] } },
{ "type": "Feature", "properties": { "id": null, "name": "鹿兒島屋商店 山本力", "address": "錦3-225", "type": 6, "sort2": "海產物" }, "geometry": { "type": "Point", "coordinates": [ 120.199717892691027, 22.994207659884307 ] } },
{ "type": "Feature", "properties": { "id": null, "name": "出口商店 出口楢吉", "address": "錦3-228", "type": 6, "sort2": "草鞋" }, "geometry": { "type": "Point", "coordinates": [ 120.199559570208237, 22.994244182889069 ] } },
{ "type": "Feature", "properties": { "id": null, "name": "櫻井洋品店", "address": "錦3-230", "type": 6, "sort2": "和洋雜貨" }, "geometry": { "type": "Point", "coordinates": [ 120.199474133803051, 22.994268375459097 ] } },
{ "type": "Feature", "properties": { "id": null, "name": "浦田豐國堂 浦田勘吉, 衣笠商會, 三星堂", "address": "錦3-234", "type": 6, "sort2": "藥種\/瓦斯爐\/印刷" }, "geometry": { "type": "Point", "coordinates": [ 120.199298070408929, 22.994224905576509 ] } },
{ "type": "Feature", "properties": { "id": null, "name": "高橋ラジオ店", "address": "錦3-235", "type": 6, "sort2": "收音機" }, "geometry": { "type": "Point", "coordinates": [ 120.199459490141265, 22.994035763508915 ] } },
{ "type": "Feature", "properties": { "id": null, "name": "山下商店 山下友吉", "address": "錦3-243", "type": 6, "sort2": "物品販賣" }, "geometry": { "type": "Point", "coordinates": [ 120.199538629888934, 22.993691505282921 ] } },
{ "type": "Feature", "properties": { "id": null, "name": "角屋支店 山下幸一, 草間兄弟商會 草間三郎", "address": "錦3-250", "type": 6, "sort2": "洗濯\/用達" }, "geometry": { "type": "Point", "coordinates": [ 120.199940710729521, 22.993629050010387 ] } },
{ "type": "Feature", "properties": { "id": null, "name": "義泰精米所 魏義", "address": "錦3-91", "type": 6, "sort2": "米" }, "geometry": { "type": "Point", "coordinates": [ 120.199527438290318, 22.994542335015819 ] } },
{ "type": "Feature", "properties": { "id": null, "name": "長岡商會 長岡定三郎", "address": "錦3-93", "type": 6, "sort2": "自轉車販賣" }, "geometry": { "type": "Point", "coordinates": [ 120.199610859785793, 22.994503408376591 ] } },
{ "type": "Feature", "properties": { "id": null, "name": "新連順 何井", "address": "錦3-96", "type": 6, "sort2": "砂糖" }, "geometry": { "type": "Point", "coordinates": [ 120.199754558993959, 22.994525486497913 ] } },
{ "type": "Feature", "properties": { "id": null, "name": "福山吳服店 福山卓郎", "address": "錦3-99", "type": 6, "sort2": "吳服" }, "geometry": { "type": "Point", "coordinates": [ 120.199879640282944, 22.994454553698812 ] } },
{ "type": "Feature", "properties": { "id": null, "name": "川崎作治郎", "address": "濱1-69", "type": 6, "sort2": "土木建築" }, "geometry": { "type": "Point", "coordinates": [ 120.196538177630543, 22.991338403950824 ] } },
{ "type": "Feature", "properties": { "id": null, "name": "文山堂 陳火旺", "address": "濱2-74", "type": 6, "sort2": "豆餡" }, "geometry": { "type": "Point", "coordinates": [ 120.195530618905522, 22.989400341965393 ] } },
{ "type": "Feature", "properties": { "id": null, "name": "永順興製襪公司 代表者王周南", "address": "本4-261, 264", "type": 6, "sort2": "靴下製造" }, "geometry": { "type": "Point", "coordinates": [ 120.201017865508064, 22.99523715283739 ] } },
{ "type": "Feature", "properties": { "id": null, "name": "加藤食器店 加藤龍吉", "address": "本3-222", "type": 6, "sort2": "西洋食器, 硝子" }, "geometry": { "type": "Point", "coordinates": [ 120.202196198804245, 22.995180084903069 ] } },
{ "type": "Feature", "properties": { "id": null, "name": "大日本鹽業株式會社安平出張所", "address": "安平948", "type": 6, "sort2": "鹽" }, "geometry": { "type": "Point", "coordinates": [ 120.159830299218712, 23.003494073216856 ] } },
{ "type": "Feature", "properties": { "id": null, "name": "臺灣電力株式會社臺南出張所 安平散宿所", "address": "安平997", "type": 9, "sort2": "電氣" }, "geometry": { "type": "Point", "coordinates": [ 120.159107303119725, 23.003084950544725 ] } },
{ "type": "Feature", "properties": { "id": null, "name": "臺灣運輸株式會社臺南支店 安平出張所", "address": "安平81", "type": 3, "sort2": "運送" }, "geometry": { "type": "Point", "coordinates": [ 120.163993589378734, 22.999320289449432 ] } },
{ "type": "Feature", "properties": { "id": null, "name": "共榮鐵工所", "address": "鄭子寮29", "type": 6, "sort2": "鐵工" }, "geometry": { "type": "Point", "coordinates": [ 120.209761102975932, 23.007185108002393 ] } },
{ "type": "Feature", "properties": { "id": null, "name": "臺灣織布株式會社, 社長宅", "address": "鹽埕19", "type": 6, "sort2": "織布" }, "geometry": { "type": "Point", "coordinates": [ 120.196825533254795, 22.985708453690886 ] } },
{ "type": "Feature", "properties": { "id": null, "name": "東春米店 翁燦", "address": "高砂2-1", "type": 6, "sort2": "米" }, "geometry": { "type": "Point", "coordinates": [ 120.208969688106592, 22.99120434153976 ] } },
{ "type": "Feature", "properties": { "id": null, "name": "西河商行 陳明精", "address": "大宮1-68", "type": 6, "sort2": "批發" }, "geometry": { "type": "Point", "coordinates": [ 120.201458511515952, 22.994957596649918 ] } },
{ "type": "Feature", "properties": { "id": null, "name": "臺灣製糖株式會社 車路墘製糖所", "address": "仁德庄1658", "type": 6, "sort2": "砂糖" }, "geometry": { "type": "Point", "coordinates": [ 120.230962566751728, 22.939537234925943 ] } },
{ "type": "Feature", "properties": { "id": null, "name": "源裕商店 傅清江", "address": "本2-177", "type": 6, "sort2": "和洋雜貨" }, "geometry": { "type": "Point", "coordinates": [ 120.203949050936302, 22.994717950628868 ] } },
{ "type": "Feature", "properties": { "id": null, "name": "春成藥行 顏頭", "address": "本4-148", "type": 6, "sort2": "藥種, 賣藥" }, "geometry": { "type": "Point", "coordinates": [ 120.200754963169572, 22.996016618034187 ] } },
{ "type": "Feature", "properties": { "id": null, "name": "捷豐商行 施福壽", "address": "永樂3-13", "type": 6, "sort2": "海產物" }, "geometry": { "type": "Point", "coordinates": [ 120.198666205212689, 22.996807990863314 ] } },
{ "type": "Feature", "properties": { "id": null, "name": "李直自動車ボデー製作所 李直, 瑞進米精所 陳勇欲", "address": "永樂3-172", "type": 6, "sort2": "自動車 (汽車)\/米" }, "geometry": { "type": "Point", "coordinates": [ 120.197389662443825, 22.99668126108838 ] } },
{ "type": "Feature", "properties": { "id": null, "name": "昌興棧 連慶銘", "address": "永樂3-174", "type": 6, "sort2": "海陸物產" }, "geometry": { "type": "Point", "coordinates": [ 120.197474666120428, 22.996645596033421 ] } },
{ "type": "Feature", "properties": { "id": null, "name": "李直自動車ボデー製作所 李直, 瑞進米精所 陳勇欲", "address": "永樂3-172", "type": 6, "sort2": "自動車 (汽車)\/米" }, "geometry": { "type": "Point", "coordinates": [ 120.197383409619576, 22.996656427297211 ] } },
{ "type": "Feature", "properties": { "id": null, "name": "臺南電氣工業所 顏文過", "address": "永樂3-198", "type": 6, "sort2": "電機" }, "geometry": { "type": "Point", "coordinates": [ 120.198265935316954, 22.996445229638816 ] } },
{ "type": "Feature", "properties": { "id": null, "name": "茂松商會 張茂松", "address": "永樂3-202", "type": 6, "sort2": "陸軍用達" }, "geometry": { "type": "Point", "coordinates": [ 120.198433785063983, 22.996361876605153 ] } },
{ "type": "Feature", "properties": { "id": null, "name": "義乾泰藥房 陳玉榮", "address": "永樂3-210", "type": 6, "sort2": "藥種, 賣藥" }, "geometry": { "type": "Point", "coordinates": [ 120.198777553799559, 22.996275603461974 ] } },
{ "type": "Feature", "properties": { "id": null, "name": "桑田商店臺南出張所 桑田剛助", "address": "永樂3-4", "type": 6, "sort2": "食料, 雜貨" }, "geometry": { "type": "Point", "coordinates": [ 120.199042894678698, 22.996648550476518 ] } },
{ "type": "Feature", "properties": { "id": null, "name": "和記商行 陳氏阿寶", "address": "永樂3-5", "type": 6, "sort2": "海產物" }, "geometry": { "type": "Point", "coordinates": [ 120.198999314593152, 22.996660372483415 ] } },
{ "type": "Feature", "properties": { "id": null, "name": "永義和商店 蔡洛", "address": "永樂3-67", "type": 6, "sort2": "綿布, 羅紗" }, "geometry": { "type": "Point", "coordinates": [ 120.196420831248318, 22.997342897287492 ] } },
{ "type": "Feature", "properties": { "id": null, "name": "岩橋商店 岩橋英太郎", "address": "永樂3-69", "type": 6, "sort2": "材木" }, "geometry": { "type": "Point", "coordinates": [ 120.196333422002112, 22.997369010282021 ] } },
{ "type": "Feature", "properties": { "id": null, "name": "松田園 松田長次郎", "address": "白金2-25", "type": 6, "sort2": "食料, 雜貨" }, "geometry": { "type": "Point", "coordinates": [ 120.20339420666221, 22.993917665494028 ] } },
{ "type": "Feature", "properties": { "id": null, "name": "和春支店 王吟子", "address": "永樂2-157", "type": 6, "sort2": "織物" }, "geometry": { "type": "Point", "coordinates": [ 120.196821042705992, 22.997835049712535 ] } },
{ "type": "Feature", "properties": { "id": null, "name": "接昌工業所", "address": "永樂2-207", "type": 6, "sort2": "塗料" }, "geometry": { "type": "Point", "coordinates": [ 120.195453328815091, 22.997865538504797 ] } },
{ "type": "Feature", "properties": { "id": null, "name": "展南行 康再成", "address": "永樂2-24", "type": 6, "sort2": "藥種, 賣藥" }, "geometry": { "type": "Point", "coordinates": [ 120.19920433027049, 22.99720673057671 ] } },
{ "type": "Feature", "properties": { "id": null, "name": "臺灣體仁合資會社", "address": "永樂2-85-1", "type": 6, "sort2": "葬儀請負" }, "geometry": { "type": "Point", "coordinates": [ 120.198290894663756, 22.997377271916218 ] } },
{ "type": "Feature", "properties": { "id": null, "name": "乾元白米店 楊再生", "address": "老松1-198", "type": 6, "sort2": "米" }, "geometry": { "type": "Point", "coordinates": [ 120.206526546782115, 22.999568761598216 ] } },
{ "type": "Feature", "properties": { "id": null, "name": "隆源商店 施天恩", "address": "西門1-20", "type": 6, "sort2": "陶器" }, "geometry": { "type": "Point", "coordinates": [ 120.20138852429713, 22.99810492876124 ] } },
{ "type": "Feature", "properties": { "id": null, "name": "三好自動車合資會社 謝火生", "address": "西門4-77", "type": 3, "sort2": "自動車 (汽車)" }, "geometry": { "type": "Point", "coordinates": [ 120.199070936405548, 22.992492460783588 ] } },
{ "type": "Feature", "properties": { "id": null, "name": "大新商事株式會社 楊宗城", "address": "後甲392", "type": 6, "sort2": "醬" }, "geometry": { "type": "Point", "coordinates": [ 120.226592504195381, 22.986160599470022 ] } },
{ "type": "Feature", "properties": { "id": null, "name": "方金水印刷製本所 方金水", "address": "泉65", "type": 6, "sort2": "印刷" }, "geometry": { "type": "Point", "coordinates": [ 120.198970209288035, 22.990456491912067 ] } },
{ "type": "Feature", "properties": { "id": null, "name": "西村製作所 西村カノ", "address": "清水1-18", "type": 6, "sort2": "度量衡" }, "geometry": { "type": "Point", "coordinates": [ 120.206562474996218, 22.992320073193561 ] } },
{ "type": "Feature", "properties": { "id": null, "name": "松並洗濯工場", "address": "清水1-19", "type": 6, "sort2": "洗濯" }, "geometry": { "type": "Point", "coordinates": [ 120.206397721518613, 22.992413763976561 ] } },
{ "type": "Feature", "properties": { "id": null, "name": "アメリカン洋裁院", "address": "清水1-43", "type": 6, "sort2": "裁縫" }, "geometry": { "type": "Point", "coordinates": [ 120.20663458366721, 22.992082026364876 ] } },
{ "type": "Feature", "properties": { "id": null, "name": "臺灣拓殖株式會社臺南出張所", "address": "清水1-43, 44", "type": 6, "sort2": "會社" }, "geometry": { "type": "Point", "coordinates": [ 120.206617762019647, 22.992156210109783 ] } },
{ "type": "Feature", "properties": { "id": null, "name": "中條疊店", "address": "清水1-48", "type": 6, "sort2": "疊蓆" }, "geometry": { "type": "Point", "coordinates": [ 120.207037750797525, 22.992108038129597 ] } },
{ "type": "Feature", "properties": { "id": null, "name": "萬川菓子店", "address": "清水1-55", "type": 6, "sort2": "菓子" }, "geometry": { "type": "Point", "coordinates": [ 120.207516381361003, 22.991795862091671 ] } },
{ "type": "Feature", "properties": { "id": null, "name": "臺灣新民報社臺南支局, 南部土木建築同業組合", "address": null, "type": 0, "sort2": "新聞, 土木建築" }, "geometry": { "type": "Point", "coordinates": [ 120.209267762194258, 22.991732048715431 ] } },
{ "type": "Feature", "properties": { "id": null, "name": "源興冰販賣店", "address": "清水2-130", "type": 6, "sort2": "冰, 飲料" }, "geometry": { "type": "Point", "coordinates": [ 120.209458955763935, 22.991748497032123 ] } },
{ "type": "Feature", "properties": { "id": null, "name": "大豐商店", "address": "清水2-136", "type": 6, "sort2": "果物, 青物" }, "geometry": { "type": "Point", "coordinates": [ 120.209756391570309, 22.99170713274723 ] } },
{ "type": "Feature", "properties": { "id": null, "name": "河內安全堂藥房 河內萬次郎", "address": "清水2-141", "type": 6, "sort2": "藥種, 賣藥" }, "geometry": { "type": "Point", "coordinates": [ 120.20994964121013, 22.991609690781878 ] } },
{ "type": "Feature", "properties": { "id": null, "name": "南屋食料品店", "address": "清水2-144", "type": 6, "sort2": "食料, 雜貨" }, "geometry": { "type": "Point", "coordinates": [ 120.210142872439235, 22.991352305859508 ] } },
{ "type": "Feature", "properties": { "id": null, "name": "日の丸園茶舖", "address": "清水2-149-2", "type": 6, "sort2": "茶" }, "geometry": { "type": "Point", "coordinates": [ 120.210416943144423, 22.991396960026968 ] } },
{ "type": "Feature", "properties": { "id": null, "name": "田中屋 小路重次", "address": "清水2-34", "type": 6, "sort2": "食料, 雜貨" }, "geometry": { "type": "Point", "coordinates": [ 120.209216255752636, 22.991991706565933 ] } },
{ "type": "Feature", "properties": { "id": null, "name": "州購買組合", "address": "清水2-40, 41", "type": 6, "sort2": "購買" }, "geometry": { "type": "Point", "coordinates": [ 120.208629354317708, 22.992128432097367 ] } },
{ "type": "Feature", "properties": { "id": null, "name": "大進商店臺南本店", "address": "清水2-60", "type": 3, "sort2": "自動車 (汽車)" }, "geometry": { "type": "Point", "coordinates": [ 120.207983006901486, 22.992203627500693 ] } },
{ "type": "Feature", "properties": { "id": null, "name": "第53區煙草賣捌所 森永種次郎", "address": "清水2-61", "type": 6, "sort2": "煙草" }, "geometry": { "type": "Point", "coordinates": [ 120.207912913229578, 22.992181478634034 ] } },
{ "type": "Feature", "properties": { "id": null, "name": "しみづ堂文房具店, 仁壽藥房 陳壬子\n", "address": "清水2-63", "type": 6, "sort2": "藥, 文具" }, "geometry": { "type": "Point", "coordinates": [ 120.208318369226134, 22.991931196414267 ] } },
{ "type": "Feature", "properties": { "id": null, "name": "楠商會 楠薰雄", "address": "清水2-74", "type": 6, "sort2": "味噌, 醬油" }, "geometry": { "type": "Point", "coordinates": [ 120.208695755251313, 22.991820461620577 ] } },
{ "type": "Feature", "properties": { "id": null, "name": "崑輪自轉車店 伍龍", "address": "清水2-82", "type": 3, "sort2": "自轉車 (腳踏車)" }, "geometry": { "type": "Point", "coordinates": [ 120.208985324522203, 22.991844134262553 ] } },
{ "type": "Feature", "properties": { "id": null, "name": "丸尾クリーニング商會", "address": "清水2-87", "type": 6, "sort2": "洗濯" }, "geometry": { "type": "Point", "coordinates": [ 120.20898079042027, 22.991595773290307 ] } },
{ "type": "Feature", "properties": { "id": null, "name": "ボイド商會", "address": "清水3-4-1", "type": 6, "sort2": "貿易" }, "geometry": { "type": "Point", "coordinates": [ 120.209395142263517, 22.993992102547246 ] } },
{ "type": "Feature", "properties": { "id": null, "name": "住吉勇三 (住吉組), 中井清枝 住吉組", "address": "清水3-6", "type": 6, "sort2": "土木建築" }, "geometry": { "type": "Point", "coordinates": [ 120.210286234847132, 22.992025480590229 ] } },
{ "type": "Feature", "properties": { "id": null, "name": "中村履物店, 林農具種苗店 林縫之助, 臺灣電力株式會社臺南出張所 清水町散宿所", "address": "清水3-7", "type": 6, "sort2": "草鞋, 農具, 電氣" }, "geometry": { "type": "Point", "coordinates": [ 120.209982770665889, 22.992006814321162 ] } },
{ "type": "Feature", "properties": { "id": null, "name": "富國商行 藤谷洋一郎", "address": "港1-102", "type": 6, "sort2": "電機" }, "geometry": { "type": "Point", "coordinates": [ 120.197918239134111, 22.99521701013127 ] } },
{ "type": "Feature", "properties": { "id": null, "name": "富士紙店 劉壽益", "address": "港1-115", "type": 6, "sort2": "紙, 文具" }, "geometry": { "type": "Point", "coordinates": [ 120.198192461686929, 22.995033564153381 ] } },
{ "type": "Feature", "properties": { "id": null, "name": "英源洋行 謝國源", "address": "港1-121", "type": 6, "sort2": "和洋雜貨" }, "geometry": { "type": "Point", "coordinates": [ 120.198544383055676, 22.995249842890438 ] } },
{ "type": "Feature", "properties": { "id": null, "name": "丸進 陳天宇", "address": "港1-123", "type": 6, "sort2": "海產物" }, "geometry": { "type": "Point", "coordinates": [ 120.198452605497636, 22.994936935625283 ] } },
{ "type": "Feature", "properties": { "id": null, "name": "庄司醫院 庄司常治, 同美號米商店 施右", "address": "港1-137", "type": 6, "sort2": "醫院, 米" }, "geometry": { "type": "Point", "coordinates": [ 120.198911821878355, 22.994951675251883 ] } },
{ "type": "Feature", "properties": { "id": null, "name": "金長美", "address": "港1-139", "type": 6, "sort2": "海產物" }, "geometry": { "type": "Point", "coordinates": [ 120.198914410867275, 22.994792576217975 ] } },
{ "type": "Feature", "properties": { "id": null, "name": "蓬萊商行", "address": "港1-140", "type": 6, "sort2": "各種皮革, 問屋" }, "geometry": { "type": "Point", "coordinates": [ 120.198957778460709, 22.994780811696355 ] } },
{ "type": "Feature", "properties": { "id": null, "name": "丸見屋商店 楊門", "address": "港1-144", "type": 6, "sort2": "海產物" }, "geometry": { "type": "Point", "coordinates": [ 120.198999756558962, 22.994769547465292 ] } },
{ "type": "Feature", "properties": { "id": null, "name": "永戶支店 永戶多喜", "address": "港1-145", "type": 6, "sort2": "疊表 (榻榻米的外層)" }, "geometry": { "type": "Point", "coordinates": [ 120.199031035676455, 22.994764801260494 ] } },
{ "type": "Feature", "properties": { "id": null, "name": "陳泉和商店 陳石頭", "address": "港1-150", "type": 6, "sort2": "海產物" }, "geometry": { "type": "Point", "coordinates": [ 120.198903093815943, 22.99426528154267 ] } },
{ "type": "Feature", "properties": { "id": null, "name": "那須繁治", "address": "港1-151", "type": 6, "sort2": "疊蓆" }, "geometry": { "type": "Point", "coordinates": [ 120.198898465924387, 22.994391348769966 ] } },
{ "type": "Feature", "properties": { "id": null, "name": "豐源商店 陳應瑞", "address": "港1-155", "type": 6, "sort2": "食料, 雜貨" },