var tainan_residence = {
"type": "FeatureCollection",
"name": "tainan_residence",
"crs": { "type": "name", "properties": { "name": "urn:ogc:def:crs:OGC:1.3:CRS84" } },
"features": [
{ "type": "Feature", "properties": { "id": null, "name": "高等工業學校校長官舍", "address": "旭6", "type": 10, "sort2": "官舍" }, "geometry": { "type": "Point", "coordinates": [ 120.218750140985705, 22.998849217156259 ] } },
{ "type": "Feature", "properties": { "id": null, "name": "赤司合嘉 台南醫院內科醫長", "address": "大正1-15", "type": 10, "sort2": "官舍" }, "geometry": { "type": "Point", "coordinates": [ 120.206068195834433, 22.993391967371679 ] } },
{ "type": "Feature", "properties": { "id": null, "name": "州農會技師宿舍", "address": "大正3-6-14", "type": 10, "sort2": "官舍" }, "geometry": { "type": "Point", "coordinates": [ 120.210268889971559, 22.996832128103417 ] } },
{ "type": "Feature", "properties": { "id": null, "name": "花園尋常高等小學校校長宿舍", "address": "北門1-2-11", "type": 10, "sort2": "官舍" }, "geometry": { "type": "Point", "coordinates": [ 120.210529407369137, 23.000262074181464 ] } },
{ "type": "Feature", "properties": { "id": null, "name": "州調停課長官舍, 州水利課長官舍, 臺南郵便局 局長官舍", "address": "北門1-27", "type": 10, "sort2": "官舍" }, "geometry": { "type": "Point", "coordinates": [ 120.211232321662465, 22.999459531324888 ] } },
{ "type": "Feature", "properties": { "id": null, "name": "別府文祐", "address": "北門2-30", "type": 11, "sort2": "住宅" }, "geometry": { "type": "Point", "coordinates": [ 120.211805369721361, 22.998840605943062 ] } },
{ "type": "Feature", "properties": { "id": null, "name": "專賣局臺南支局 竹園町官舍, 細川タイヤー工場", "address": "北門2-40", "type": 10, "sort2": "官舍, 自動車輪胎修繕" }, "geometry": { "type": "Point", "coordinates": [ 120.212332652656656, 22.998587028737877 ] } },
{ "type": "Feature", "properties": { "id": null, "name": "村上玉吉 台灣漁業會社專務", "address": "末廣2-21", "type": 11, "sort2": "會社員" }, "geometry": { "type": "Point", "coordinates": [ 120.202489401664693, 22.991476264500253 ] } },
{ "type": "Feature", "properties": { "id": null, "name": "州土木課長官舍", "address": "末廣2-99", "type": 10, "sort2": "官舍" }, "geometry": { "type": "Point", "coordinates": [ 120.201974544429746, 22.991428344292796 ] } },
{ "type": "Feature", "properties": { "id": null, "name": "州知事官邸", "address": "竹園1-39", "type": 10, "sort2": "官舍" }, "geometry": { "type": "Point", "coordinates": [ 120.213515799074074, 22.992607033102775 ] } },
{ "type": "Feature", "properties": { "id": null, "name": "內務部長官邸", "address": "竹園1", "type": 10, "sort2": "官舍" }, "geometry": { "type": "Point", "coordinates": [ 120.215121829832611, 22.993399222890659 ] } },
{ "type": "Feature", "properties": { "id": null, "name": "地方法院檢察長官邸", "address": "竹園1-2", "type": 10, "sort2": "官舍" }, "geometry": { "type": "Point", "coordinates": [ 120.213706130186878, 22.993916741796582 ] } },
{ "type": "Feature", "properties": { "id": null, "name": "臺南郵便局 電信課長, 郵便課長, 庶務課長官舍\n", "address": "明治1-1", "type": 10, "sort2": "官舍" }, "geometry": { "type": "Point", "coordinates": [ 120.210701452509369, 22.998083655968948 ] } },
{ "type": "Feature", "properties": { "id": null, "name": "陸軍病院院長官舍", "address": "明治1-5-5", "type": 10, "sort2": "官舍" }, "geometry": { "type": "Point", "coordinates": [ 120.208800469702965, 22.99881123971139 ] } },
{ "type": "Feature", "properties": { "id": null, "name": "嘉南大圳組合 理事宿舍", "address": "明治2-91", "type": 11, "sort2": "住宅" }, "geometry": { "type": "Point", "coordinates": [ 120.205983801626104, 22.998052867081771 ] } },
{ "type": "Feature", "properties": { "id": null, "name": "明治公學校校長宿舍", "address": "明治3-15", "type": 10, "sort2": "官舍" }, "geometry": { "type": "Point", "coordinates": [ 120.20253502709194, 22.99996917686758 ] } },
{ "type": "Feature", "properties": { "id": null, "name": "杜薪春", "address": "明治3-77", "type": 11, "sort2": "住宅" }, "geometry": { "type": "Point", "coordinates": [ 120.204075950875094, 22.9993769635884 ] } },
{ "type": "Feature", "properties": { "id": null, "name": "陳瑞山, 帝國商事株式會社", "address": "本4-194", "type": 11, "sort2": "住宅, 自動車 (汽車)" }, "geometry": { "type": "Point", "coordinates": [ 120.199933496220623, 22.995822625723505 ] } },
{ "type": "Feature", "properties": { "id": null, "name": "室谷信次郎 台灣日報社社會部長", "address": "永樂2-143", "type": 11, "sort2": "住宅" }, "geometry": { "type": "Point", "coordinates": [ 120.198269909554114, 22.998382008052211 ] } },
{ "type": "Feature", "properties": { "id": null, "name": "西澤錦也", "address": "老松1-17", "type": 11, "sort2": "住宅" }, "geometry": { "type": "Point", "coordinates": [ 120.205936384772784, 23.000669351365278 ] } },
{ "type": "Feature", "properties": { "id": null, "name": "石塚廣", "address": "西門4-40", "type": 11, "sort2": "住宅" }, "geometry": { "type": "Point", "coordinates": [ 120.199733024524136, 22.992305138098999 ] } },
{ "type": "Feature", "properties": { "id": null, "name": "東敬之佐", "address": "西門5-87", "type": 11, "sort2": "住宅" }, "geometry": { "type": "Point", "coordinates": [ 120.19853686695096, 22.991938335937274 ] } },
{ "type": "Feature", "properties": { "id": null, "name": "王受祿住宅", "address": "花園2-175", "type": 11, "sort2": "住宅" }, "geometry": { "type": "Point", "coordinates": [ 120.205359795783679, 22.997429660180675 ] } },
{ "type": "Feature", "properties": { "id": null, "name": "馬場德次郎 日吉屋別宅", "address": "花園2-95", "type": 11, "sort2": "住宅" }, "geometry": { "type": "Point", "coordinates": [ 120.20520671272152, 22.99543301973711 ] } },
{ "type": "Feature", "properties": { "id": null, "name": "州勸業技師宿舍", "address": "花園3-58", "type": 10, "sort2": "官舍" }, "geometry": { "type": "Point", "coordinates": [ 120.207741838534744, 22.999820699886328 ] } },
{ "type": "Feature", "properties": { "id": null, "name": "宮本一學 台灣日報社長", "address": "南門2-41", "type": 11, "sort2": "住宅" }, "geometry": { "type": "Point", "coordinates": [ 120.201833472770645, 22.989482495562182 ] } },
{ "type": "Feature", "properties": { "id": null, "name": "臺灣製鹽株式會社 取締義支配人出澤鬼久太", "address": "南門2-46,47", "type": 11, "sort2": "住宅" }, "geometry": { "type": "Point", "coordinates": [ 120.20236200443189, 22.989262312704344 ] } },
{ "type": "Feature", "properties": { "id": null, "name": "刑務所 所長官舍", "address": "泉104", "type": 10, "sort2": "官舍" }, "geometry": { "type": "Point", "coordinates": [ 120.19829744021267, 22.98843430542729 ] } },
{ "type": "Feature", "properties": { "id": null, "name": "日本糖業聯合會臺灣支部書記長宿舍", "address": "高砂1-89", "type": 11, "sort2": "會社員" }, "geometry": { "type": "Point", "coordinates": [ 120.207732531743517, 22.992444155183637 ] } },
{ "type": "Feature", "properties": { "id": null, "name": "葉火", "address": "高砂2-250", "type": 11, "sort2": "住宅" }, "geometry": { "type": "Point", "coordinates": [ 120.208223229508775, 22.989378573286306 ] } },
{ "type": "Feature", "properties": { "id": null, "name": "川上八百藏 商工興信所主", "address": "高砂3-118", "type": 11, "sort2": "住宅" }, "geometry": { "type": "Point", "coordinates": [ 120.209630410337653, 22.989596818176924 ] } },
{ "type": "Feature", "properties": { "id": null, "name": "日本勸業銀行臺南支店臺南支店長宿舍", "address": "壽1-33", "type": 10, "sort2": "住宅" }, "geometry": { "type": "Point", "coordinates": [ 120.210264618097497, 22.992994198239881 ] } },
{ "type": "Feature", "properties": { "id": null, "name": "栗山新造 南部無盡會社專務取締役, 廣綾閣 水田三五", "address": "壽2-1", "type": 11, "sort2": "會社員\/植木, 庭師" }, "geometry": { "type": "Point", "coordinates": [ 120.211838211614889, 22.992417020335328 ] } },
{ "type": "Feature", "properties": { "id": null, "name": "臺灣商工銀行臺南支店 支店長宿舍", "address": "壽2-4", "type": 11, "sort2": "住宅" }, "geometry": { "type": "Point", "coordinates": [ 120.211367429164241, 22.992271761763231 ] } },
{ "type": "Feature", "properties": { "id": null, "name": "新豐郡役所郡守官舍", "address": "綠1-61, 62", "type": 10, "sort2": "官舍" }, "geometry": { "type": "Point", "coordinates": [ 120.206505273251508, 22.987505101946336 ] } },
{ "type": "Feature", "properties": { "id": null, "name": "州教育課長, 警務課長, 衛生課長官, 高等警察課長, 勸業課技師官舍\n", "address": "綠57", "type": 10, "sort2": "官舍" }, "geometry": { "type": "Point", "coordinates": [ 120.205054570347741, 22.988396265003548 ] } },
{ "type": "Feature", "properties": { "id": null, "name": "臺灣運輸株式會社臺南支店 臺南支店長 馬島平次, 林一郎", "address": "綠61", "type": 11, "sort2": "住宅" }, "geometry": { "type": "Point", "coordinates": [ 120.205023279575741, 22.98700223132246 ] } },
{ "type": "Feature", "properties": { "id": null, "name": "王甲乙", "address": "臺1-112", "type": 11, "sort2": "住宅" }, "geometry": { "type": "Point", "coordinates": [ 120.203236589776026, 22.996434154356034 ] } },
{ "type": "Feature", "properties": { "id": null, "name": "盲啞學校校長官舍", "address": "壽1-3", "type": 10, "sort2": "官舍" }, "geometry": { "type": "Point", "coordinates": [ 120.212003364038154, 22.994171910606212 ] } },
{ "type": "Feature", "properties": { "id": null, "name": "大日本鹽業株式會社安平出張 社宅", "address": "安平895", "type": 11, "sort2": "會社員" }, "geometry": { "type": "Point", "coordinates": [ 120.161786550920027, 23.002275170412279 ] } },
{ "type": "Feature", "properties": { "id": null, "name": "專賣局臺南支局 安平分室主任官舍", "address": "安平996", "type": 10, "sort2": "官舍" }, "geometry": { "type": "Point", "coordinates": [ 120.158921454998335, 23.002397616585707 ] } },
{ "type": "Feature", "properties": { "id": null, "name": "專賣局臺南支局 支局長官舍", "address": "竹園2-40", "type": 10, "sort2": "官舍" }, "geometry": { "type": "Point", "coordinates": [ 120.213868990663101, 22.991212875722258 ] } },
{ "type": "Feature", "properties": { "id": null, "name": "遞信部臺南區 主任技術官宿舍", "address": "竹園1-50", "type": 10, "sort2": "官舍" }, "geometry": { "type": "Point", "coordinates": [ 120.212781284424949, 22.993615495914714 ] } },
{ "type": "Feature", "properties": { "id": null, "name": "三和銀行臺南支店 支店長宿舍", "address": "竹園1-45", "type": 11, "sort2": "住宅" }, "geometry": { "type": "Point", "coordinates": [ 120.212346460491489, 22.992323983817315 ] } },
{ "type": "Feature", "properties": { "id": null, "name": "殖產局度量衡所台南分室 主幹官舍", "address": "竹園1-10", "type": 10, "sort2": "官舍" }, "geometry": { "type": "Point", "coordinates": [ 120.214876815909577, 22.993803751561082 ] } },
{ "type": "Feature", "properties": { "id": null, "name": "州營繕技師官舍", "address": "竹園1-12", "type": 10, "sort2": "官舍" }, "geometry": { "type": "Point", "coordinates": [ 120.215264488314688, 22.99389939179639 ] } },
{ "type": "Feature", "properties": { "id": null, "name": "州文書課長官舍, 州會計課長官舍", "address": "竹園1-41", "type": 10, "sort2": "官舍" }, "geometry": { "type": "Point", "coordinates": [ 120.213350898763068, 22.991897874577795 ] } },
{ "type": "Feature", "properties": { "id": null, "name": "高崎組 高崎康彥, 南鐵作", "address": "竹園1-3", "type": 10, "sort2": "土木建築 \/ 官舍" }, "geometry": { "type": "Point", "coordinates": [ 120.215649016374812, 22.994372602547816 ] } },
{ "type": "Feature", "properties": { "id": null, "name": "州土木課土木技師官舍", "address": "竹園1-22", "type": 10, "sort2": "官舍" }, "geometry": { "type": "Point", "coordinates": [ 120.216135920865597, 22.993349279195513 ] } },
{ "type": "Feature", "properties": { "id": null, "name": "州秘書係長官舍", "address": "竹園1-8", "type": 10, "sort2": "官舍" }, "geometry": { "type": "Point", "coordinates": [ 120.214449049912503, 22.993696622974014 ] } },
{ "type": "Feature", "properties": { "id": null, "name": "高等工業學校鄭子寮官舍", "address": "鄭子寮47-15", "type": 10, "sort2": "官舍" }, "geometry": { "type": "Point", "coordinates": [ 120.209885001979757, 23.004004208413072 ] } },
{ "type": "Feature", "properties": { "id": null, "name": "藤本周一 臺南友信會宿舍", "address": "永樂3-139", "type": 11, "sort2": "住宅" }, "geometry": { "type": "Point", "coordinates": [ 120.196219774025707, 22.997033416314142 ] } },
{ "type": "Feature", "properties": { "id": null, "name": "新高タクシー 羅𠂢連", "address": "西門2-115", "type": 11, "sort2": "住宅" }, "geometry": { "type": "Point", "coordinates": [ 120.199169006785681, 22.99781294285113 ] } },
{ "type": "Feature", "properties": { "id": null, "name": "州視學官舍", "address": "清水2-145", "type": 10, "sort2": "官舍" }, "geometry": { "type": "Point", "coordinates": [ 120.210206533731636, 22.991558638624703 ] } },
{ "type": "Feature", "properties": { "id": null, "name": "警察署 署長官舍", "address": "清水2-75", "type": 10, "sort2": "官舍" }, "geometry": { "type": "Point", "coordinates": [ 120.20855937670737, 22.991578115413187 ] } },
{ "type": "Feature", "properties": { "id": null, "name": "步兵第二聯隊本部聯隊長官舍", "address": "清水3-8", "type": 10, "sort2": "官舍" }, "geometry": { "type": "Point", "coordinates": [ 120.208745562093583, 22.992738519471825 ] } },
{ "type": "Feature", "properties": { "id": null, "name": "州特別高等係長官舍", "address": "綠59", "type": 10, "sort2": "官舍" }, "geometry": { "type": "Point", "coordinates": [ 120.205545382101704, 22.98791861073293 ] } },
{ "type": "Feature", "properties": { "id": null, "name": "水產試驗場台南支場 支場長青木﨣雄", "address": "港2-120", "type": 10, "sort2": "官舍" }, "geometry": { "type": "Point", "coordinates": [ 120.194455800686001, 22.996154994351024 ] } },
{ "type": "Feature", "properties": { "id": null, "name": "林田正治", "address": "開山2-2", "type": 11, "sort2": "住宅" }, "geometry": { "type": "Point", "coordinates": [ 120.207343261021592, 22.991019834873164 ] } },
{ "type": "Feature", "properties": { "id": null, "name": "州社會事業主事官舍", "address": "開山2-6", "type": 10, "sort2": "官舍" }, "geometry": { "type": "Point", "coordinates": [ 120.207411359784444, 22.990848394945679 ] } },
{ "type": "Feature", "properties": { "id": null, "name": "第一高等女學校校長宿舍,\n舍監長", "address": "開山3-173", "type": 10, "sort2": "官舍" }, "geometry": { "type": "Point", "coordinates": [ 120.207606012798664, 22.986040865020268 ] } },
{ "type": "Feature", "properties": { "id": null, "name": "新豐郡實行小組合聯合會副會長宿舍", "address": "開山3-58", "type": 11, "sort2": "住宅" }, "geometry": { "type": "Point", "coordinates": [ 120.207039592070558, 22.988041609414697 ] } },
{ "type": "Feature", "properties": { "id": null, "name": "地方法院法院長官舍, 豫審判官官舍, 部長官舍", "address": "開山3-7", "type": 10, "sort2": "官舍" }, "geometry": { "type": "Point", "coordinates": [ 120.209544591760277, 22.98859437513963 ] } },
{ "type": "Feature", "properties": { "id": null, "name": "內務局曾文溪治水工事事務所官舍", "address": "三分子133", "type": 10, "sort2": "官舍" }, "geometry": { "type": "Point", "coordinates": [ 120.214978560717626, 23.005664841689395 ] } },
{ "type": "Feature", "properties": { "id": null, "name": "糖業試驗所官舍", "address": "桶盤淺字大林118", "type": 10, "sort2": "官舍" }, "geometry": { "type": "Point", "coordinates": [ 120.213063946968305, 22.97409363465994 ] } },
{ "type": "Feature", "properties": { "id": null, "name": "農事試驗場場長官舍", "address": "東門4-206", "type": 10, "sort2": "官舍" }, "geometry": { "type": "Point", "coordinates": [ 120.219945556284046, 22.984827175689706 ] } },
{ "type": "Feature", "properties": { "id": null, "name": "家政女學院 學寮", "address": "東門2-20", "type": 11, "sort2": "宿舍" }, "geometry": { "type": "Point", "coordinates": [ 120.214445092746928, 22.988612077638265 ] } },
{ "type": "Feature", "properties": { "id": null, "name": "黃欣", "address": "東門2-95", "type": 11, "sort2": "住宅" }, "geometry": { "type": "Point", "coordinates": [ 120.21331280618007, 22.987717566920129 ] } }
]
}
